EIA_Plant_ID,EIA_Generator_ID,EIA_Plant_Name,Status,Install_Year,Retirement_Year,Sync_To_Grid,Summer_Capacity_MW,Winter_Capacity_MW,Primary_Energy_Source,Secondary_Energy_Source,Technology,Prime_Mover,Source,Latitude,Longitude,NERC_Region,BA_Code,State,County,Transmission_Owner,Region,Type,Retired_Flag,New_Install_Flag,State_BA_Region,Planning_Region,Fuel_Type_Detail,Fuel_Type_Simple,Dual_Fuel,Interconnect,_merge
72.0,1,Venice Hydro,SB,1982.0,,Y,10.1,10.1,WAT,,Conventional Hydroelectric,HY,Operable,34.01135,-118.4168,WECC,CISO,CA,Los Angeles,Southern California Edison Co,SOUTHERN CALIFORNIA,HYDRO,0,0,County,SOUTHERN CALIFORNIA,Hydro,HYDRO,0,Western,left_only
143.0,CC5,Crosscut,OS,1939.0,,X,3.0,3.0,WAT,,Conventional Hydroelectric,HY,Operable,33.439375,-111.946052,WECC,SRP,AZ,Maricopa,Salt River Project,SOUTHWEST,HYDRO,0,0,Southwest,Southwest,Hydro,HYDRO,0,Western,left_only
147.0,KY1,Kyrene,OS,1952.0,,X,34.0,34.0,NG,DFO,Natural Gas Steam Turbine,ST,Operable,33.3556,-111.9353,WECC,SRP,AZ,Maricopa,Salt River Project,SOUTHWEST,GAS (DUAL FUEL),0,0,Southwest,Southwest,NG ST,GAS,1,Western,left_only
147.0,KY2,Kyrene,OS,1954.0,,X,72.0,72.0,NG,DFO,Natural Gas Steam Turbine,ST,Operable,33.3556,-111.9353,WECC,SRP,AZ,Maricopa,Salt River Project,SOUTHWEST,GAS (DUAL FUEL),0,0,Southwest,Southwest,NG ST,GAS,1,Western,left_only
160.0,GT1,Apache Station,SB,1963.0,,Y,10.0,10.0,NG,,Natural Gas Fired Combustion Turbine,GT,Operable,32.0603,-109.8931,WECC,WALC,AZ,Cochise,Arizona Electric Pwr Coop Inc,SOUTHWEST,GAS (SINGLE FUEL),0,0,Southwest,Southwest,NG CT,GAS,0,Western,left_only
160.0,GT2,Apache Station,SB,1972.0,,Y,18.5,20.0,NG,,Natural Gas Fired Combustion Turbine,GT,Operable,32.0603,-109.8931,WECC,WALC,AZ,Cochise,Arizona Electric Pwr Coop Inc,SOUTHWEST,GAS (DUAL FUEL),0,0,Southwest,Southwest,NG CT,GAS,0,Western,left_only
160.0,GT3,Apache Station,SB,1975.0,,Y,60.0,63.0,NG,,Natural Gas Fired Combustion Turbine,GT,Operable,32.0603,-109.8931,WECC,WALC,AZ,Cochise,Arizona Electric Pwr Coop Inc,SOUTHWEST,GAS (SINGLE FUEL),0,0,Southwest,Southwest,NG CT,GAS,0,Western,left_only
160.0,GT4,Apache Station,SB,2002.0,,Y,38.0,44.0,NG,,Natural Gas Fired Combustion Turbine,GT,Operable,32.0603,-109.8931,WECC,WALC,AZ,Cochise,Arizona Electric Pwr Coop Inc,SOUTHWEST,GAS (DUAL FUEL),0,0,Southwest,Southwest,NG CT,GAS,0,Western,left_only
160.0,ST1,Apache Station,SB,1964.0,,Y,72.0,72.0,NG,,Natural Gas Steam Turbine,ST,Operable,32.0603,-109.8931,WECC,WALC,AZ,Cochise,Arizona Electric Pwr Coop Inc,SOUTHWEST,GAS (SINGLE FUEL),0,0,Southwest,Southwest,NG ST,GAS,0,Western,left_only
165.0,2,GREC,OP,1985.0,2026.0,X,492.5,492.5,SUB,,Conventional Steam Coal,ST,Operable,36.190278,-95.2894,MRO,SWPP,OK,Mayes,Grand River Dam Authority,SPP-S,COAL,1,0,SPP-S,SPP-S,Coal ST,COAL,0,Eastern,left_only
170.0,4,Lake Catherine,OP,1970.0,2027.0,X,522.0,522.0,NG,,Natural Gas Steam Turbine,ST,Operable,34.4341,-92.9049,SERC,MISO,AR,Hot Spring,Entergy Arkansas Inc,MISO-S,GAS (SINGLE FUEL),1,0,MISO-S,MISO-S,NG ST,GAS,0,Eastern,left_only
172.0,9,Osceola (AR),SB,1992.0,,N,1.6,1.6,DFO,,Petroleum Liquids,IC,Operable,35.705381,-89.9689,SERC,MISO,AR,Mississippi,Entergy Arkansas Inc,MISO-S,OIL,0,0,MISO-S,MISO-S,Oil IC,OIL,0,Eastern,left_only
193.0,1,Municipal Light,OS,1963.0,,X,2.0,2.0,DFO,,Petroleum Liquids,IC,Operable,36.3858,-90.1867,SERC,SPA,AR,Clay,Southwestern Power Administration,SPP-S,OIL,0,0,SERC-C,SERC-C,Oil IC,OIL,0,Eastern,left_only
193.0,2,Municipal Light,OS,1952.0,,X,0.6,0.6,DFO,,Petroleum Liquids,IC,Operable,36.3858,-90.1867,SERC,SPA,AR,Clay,Southwestern Power Administration,SPP-S,OIL,0,0,SERC-C,SERC-C,Oil IC,OIL,0,Eastern,left_only
193.0,4,Municipal Light,OS,1976.0,,X,2.2,2.2,DFO,,Petroleum Liquids,IC,Operable,36.3858,-90.1867,SERC,SPA,AR,Clay,Southwestern Power Administration,SPP-S,OIL,0,0,SERC-C,SERC-C,Oil IC,OIL,0,Eastern,left_only
193.0,6,Municipal Light,OS,1959.0,,X,1.3,1.3,DFO,,Petroleum Liquids,IC,Operable,36.3858,-90.1867,SERC,SPA,AR,Clay,Southwestern Power Administration,SPP-S,OIL,0,0,SERC-C,SERC-C,Oil IC,OIL,0,Eastern,left_only
193.0,7,Municipal Light,OS,1955.0,,X,1.1,1.1,DFO,,Petroleum Liquids,IC,Operable,36.3858,-90.1867,SERC,SPA,AR,Clay,Southwestern Power Administration,SPP-S,OIL,0,0,SERC-C,SERC-C,Oil IC,OIL,0,Eastern,left_only
202.0,1,Carl Bailey,OS,1966.0,,X,122.0,122.0,NG,RFO,Natural Gas Steam Turbine,ST,Operable,35.260102,-91.363426,SERC,MISO,AR,Woodruff,Entergy Arkansas Inc,MISO-S,GAS (DUAL FUEL),0,0,MISO-S,MISO-S,NG ST,GAS,1,Eastern,left_only
224.0,1,Centerville PH,OS,1900.0,,X,5.5,5.5,WAT,,Conventional Hydroelectric,HY,Operable,39.788877,-121.657383,WECC,CISO,CA,Butte,Pacific Gas & Electric Co,NORTHERN CALIFORNIA,HYDRO,0,0,County,NORTHERN CALIFORNIA,Hydro,HYDRO,0,Western,left_only
224.0,2,Centerville PH,OS,1900.0,,X,0.9,0.9,WAT,,Conventional Hydroelectric,HY,Operable,39.788877,-121.657383,WECC,CISO,CA,Butte,Pacific Gas & Electric Co,NORTHERN CALIFORNIA,HYDRO,0,0,County,NORTHERN CALIFORNIA,Hydro,HYDRO,0,Western,left_only
229.0,1,Cow Creek,OP,1907.0,2025.0,X,0.9,0.9,WAT,,Conventional Hydroelectric,HY,Operable,40.570817,-122.02093,WECC,CISO,CA,Shasta,Pacific Gas & Electric Co,NORTHERN CALIFORNIA,HYDRO,1,0,County,NORTHERN CALIFORNIA,Hydro,HYDRO,0,Western,left_only
229.0,2,Cow Creek,OP,1907.0,2025.0,X,0.9,0.9,WAT,,Conventional Hydroelectric,HY,Operable,40.570817,-122.02093,WECC,CISO,CA,Shasta,Pacific Gas & Electric Co,NORTHERN CALIFORNIA,HYDRO,1,0,County,NORTHERN CALIFORNIA,Hydro,HYDRO,0,Western,left_only
242.0,1,Hamilton Branch,OS,1921.0,,X,2.4,2.4,WAT,,Conventional Hydroelectric,HY,Operable,40.268712,-121.089479,WECC,CISO,CA,Plumas,Pacific Gas & Electric Co,NORTHERN CALIFORNIA,HYDRO,0,0,County,NORTHERN CALIFORNIA,Hydro,HYDRO,0,Western,left_only
242.0,2,Hamilton Branch,OS,1921.0,,X,2.4,2.4,WAT,,Conventional Hydroelectric,HY,Operable,40.268712,-121.089479,WECC,CISO,CA,Plumas,Pacific Gas & Electric Co,NORTHERN CALIFORNIA,HYDRO,0,0,County,NORTHERN CALIFORNIA,Hydro,HYDRO,0,Western,left_only
248.0,1,Inskip,OS,1979.0,,X,8.0,8.0,WAT,,Conventional Hydroelectric,HY,Operable,40.400988,-121.965502,WECC,CISO,CA,Tehama,Pacific Gas & Electric Co,NORTHERN CALIFORNIA,HYDRO,0,0,County,NORTHERN CALIFORNIA,Hydro,HYDRO,0,Western,left_only
250.0,H1,Kerckhoff,OS,1920.0,,X,12.6,12.6,WAT,,Conventional Hydroelectric,HY,Operable,37.092486,-119.552826,WECC,CISO,CA,Fresno,Pacific Gas & Electric Co,NORTHERN CALIFORNIA,HYDRO,0,0,County,NORTHERN CALIFORNIA,Hydro,HYDRO,0,Western,left_only
250.0,H3,Kerckhoff,OS,1920.0,,X,12.6,12.6,WAT,,Conventional Hydroelectric,HY,Operable,37.092486,-119.552826,WECC,CISO,CA,Fresno,Pacific Gas & Electric Co,NORTHERN CALIFORNIA,HYDRO,0,0,County,NORTHERN CALIFORNIA,Hydro,HYDRO,0,Western,left_only
253.0,1,Kilarc,OS,1904.0,2025.0,X,1.6,1.6,WAT,,Conventional Hydroelectric,HY,Operable,40.677827,-121.873253,WECC,CISO,CA,Shasta,Pacific Gas & Electric Co,NORTHERN CALIFORNIA,HYDRO,1,0,County,NORTHERN CALIFORNIA,Hydro,HYDRO,0,Western,left_only
255.0,1,Lime Saddle,OS,1906.0,,X,1.0,1.0,WAT,,Conventional Hydroelectric,HY,Operable,39.698755,-121.57096,WECC,CISO,CA,Butte,Pacific Gas & Electric Co,NORTHERN CALIFORNIA,HYDRO,0,0,County,NORTHERN CALIFORNIA,Hydro,HYDRO,0,Western,left_only
255.0,2,Lime Saddle,OS,1906.0,,X,1.0,1.0,WAT,,Conventional Hydroelectric,HY,Operable,39.698755,-121.57096,WECC,CISO,CA,Butte,Pacific Gas & Electric Co,NORTHERN CALIFORNIA,HYDRO,0,0,County,NORTHERN CALIFORNIA,Hydro,HYDRO,0,Western,left_only
274.0,1,Potter Valley,OS,1939.0,,X,4.5,4.5,WAT,,Conventional Hydroelectric,HY,Operable,39.361786,-123.127934,WECC,CISO,CA,Mendocino,Pacific Gas & Electric Co,NORTHERN CALIFORNIA,HYDRO,0,0,County,NORTHERN CALIFORNIA,Hydro,HYDRO,0,Western,left_only
274.0,2,Potter Valley,OS,1910.0,,X,2.0,2.0,WAT,,Conventional Hydroelectric,HY,Operable,39.361786,-123.127934,WECC,CISO,CA,Mendocino,Pacific Gas & Electric Co,NORTHERN CALIFORNIA,HYDRO,0,0,County,NORTHERN CALIFORNIA,Hydro,HYDRO,0,Western,left_only
274.0,3,Potter Valley,OS,1917.0,,X,2.7,2.7,WAT,,Conventional Hydroelectric,HY,Operable,39.361786,-123.127934,WECC,CISO,CA,Mendocino,Pacific Gas & Electric Co,NORTHERN CALIFORNIA,HYDRO,0,0,County,NORTHERN CALIFORNIA,Hydro,HYDRO,0,Western,left_only
277.0,3,San Joaquin 3,OS,1923.0,,X,4.2,4.2,WAT,,Conventional Hydroelectric,HY,Operable,37.253718,-119.519352,WECC,CISO,CA,Madera,Pacific Gas & Electric Co,NORTHERN CALIFORNIA,HYDRO,0,0,County,NORTHERN CALIFORNIA,Hydro,HYDRO,0,Western,left_only
289.0,1,Tule River,OS,1914.0,,X,3.2,3.2,WAT,,Conventional Hydroelectric,HY,Operable,36.163076,-118.707104,WECC,CISO,CA,Tulare,Pacific Gas & Electric Co,NORTHERN CALIFORNIA,HYDRO,0,0,County,NORTHERN CALIFORNIA,Hydro,HYDRO,0,Western,left_only
289.0,2,Tule River,OS,1914.0,,X,3.2,3.2,WAT,,Conventional Hydroelectric,HY,Operable,36.163076,-118.707104,WECC,CISO,CA,Tulare,Pacific Gas & Electric Co,NORTHERN CALIFORNIA,HYDRO,0,0,County,NORTHERN CALIFORNIA,Hydro,HYDRO,0,Western,left_only
290.0,1,Volta 1,OS,1980.0,,X,9.0,9.0,WAT,,Conventional Hydroelectric,HY,Operable,40.459111,-121.86708,WECC,CISO,CA,Shasta,Pacific Gas & Electric Co,NORTHERN CALIFORNIA,HYDRO,0,0,County,NORTHERN CALIFORNIA,Hydro,HYDRO,0,Western,left_only
294.0,1,Copco 1,OP,1918.0,2024.0,X,14.0,14.0,WAT,,Conventional Hydroelectric,HY,Operable,41.978914,-122.335317,WECC,PACW,CA,Siskiyou,PacifiCorp,OREGON REGION,HYDRO,1,0,Oregon Region,Oregon Region,Hydro,HYDRO,0,Western,left_only
294.0,2,Copco 1,OP,1918.0,2024.0,X,14.0,14.0,WAT,,Conventional Hydroelectric,HY,Operable,41.978914,-122.335317,WECC,PACW,CA,Siskiyou,PacifiCorp,OREGON REGION,HYDRO,1,0,Oregon Region,Oregon Region,Hydro,HYDRO,0,Western,left_only
297.0,1,Iron Gate,OP,1962.0,2024.0,X,18.8,18.8,WAT,,Conventional Hydroelectric,HY,Operable,41.932981,-122.43678,WECC,PACW,CA,Siskiyou,PacifiCorp,OREGON REGION,HYDRO,1,0,Oregon Region,Oregon Region,Hydro,HYDRO,0,Western,left_only
315.0,3,AES Alamitos LLC,OP,1961.0,2026.0,X,332.0,332.0,NG,,Natural Gas Steam Turbine,ST,Operable,33.7688,-118.1009,WECC,CISO,CA,Los Angeles,Southern California Edison Co,SOUTHERN CALIFORNIA,GAS (SINGLE FUEL),1,0,County,SOUTHERN CALIFORNIA,NG ST,GAS,0,Western,left_only
315.0,4,AES Alamitos LLC,OP,1962.0,2026.0,X,335.0,335.0,NG,,Natural Gas Steam Turbine,ST,Operable,33.7688,-118.1009,WECC,CISO,CA,Los Angeles,Southern California Edison Co,SOUTHERN CALIFORNIA,GAS (SINGLE FUEL),1,0,County,SOUTHERN CALIFORNIA,NG ST,GAS,0,Western,left_only
315.0,5,AES Alamitos LLC,OP,1964.0,2026.0,X,485.0,485.0,NG,,Natural Gas Steam Turbine,ST,Operable,33.7688,-118.1009,WECC,CISO,CA,Los Angeles,Southern California Edison Co,SOUTHERN CALIFORNIA,GAS (SINGLE FUEL),1,0,County,SOUTHERN CALIFORNIA,NG ST,GAS,0,Western,left_only
316.0,1,Sepulveda Canyon,SB,1982.0,,Y,8.5,8.5,WAT,,Conventional Hydroelectric,HY,Operable,34.0969,-118.4795,WECC,LDWP,CA,Los Angeles,Los Angeles Department of Water & Power,SOUTHERN CALIFORNIA,HYDRO,0,0,Southern California,Southern California,Hydro,HYDRO,0,Western,left_only
321.0,2,Big Creek 8,OS,1929.0,,X,45.0,45.0,WAT,,Conventional Hydroelectric,HY,Operable,37.2096,-119.3289,WECC,CISO,CA,Fresno,Southern California Edison Co,SOUTHERN CALIFORNIA,HYDRO,0,0,County,SOUTHERN CALIFORNIA,Hydro,HYDRO,0,Western,left_only
322.0,1,Big Creek 2A,OS,1928.0,,X,50.0,50.0,WAT,,Conventional Hydroelectric,HY,Operable,37.200062,-119.30681,WECC,CISO,CA,Fresno,Southern California Edison Co,SOUTHERN CALIFORNIA,HYDRO,0,0,County,SOUTHERN CALIFORNIA,Hydro,HYDRO,0,Western,left_only
322.0,2,Big Creek 2A,OS,1928.0,,X,50.0,50.0,WAT,,Conventional Hydroelectric,HY,Operable,37.200062,-119.30681,WECC,CISO,CA,Fresno,Southern California Edison Co,SOUTHERN CALIFORNIA,HYDRO,0,0,County,SOUTHERN CALIFORNIA,Hydro,HYDRO,0,Western,left_only
335.0,2,AES Huntington Beach LLC,OP,1958.0,2026.0,X,225.8,225.8,NG,,Natural Gas Steam Turbine,ST,Operable,33.6439,-117.9792,WECC,CISO,CA,Orange,Southern California Edison Co,SOUTHERN CALIFORNIA,GAS (SINGLE FUEL),1,0,County,SOUTHERN CALIFORNIA,NG ST,GAS,0,Western,left_only
337.0,1,Kaweah 1,OS,1929.0,,X,2.3,2.3,WAT,,Conventional Hydroelectric,HY,Operable,36.465066,-118.862023,WECC,CISO,CA,Tulare,Southern California Edison Co,SOUTHERN CALIFORNIA,HYDRO,0,0,County,SOUTHERN CALIFORNIA,Hydro,HYDRO,0,Western,left_only
338.0,1,Kaweah 3,OS,1913.0,,X,2.4,2.4,WAT,,Conventional Hydroelectric,HY,Operable,36.486059,-118.835645,WECC,CISO,CA,Tulare,Southern California Edison Co,SOUTHERN CALIFORNIA,HYDRO,0,0,County,SOUTHERN CALIFORNIA,Hydro,HYDRO,0,Western,left_only
338.0,2,Kaweah 3,OS,1913.0,,X,2.1,2.1,WAT,,Conventional Hydroelectric,HY,Operable,36.486059,-118.835645,WECC,CISO,CA,Tulare,Southern California Edison Co,SOUTHERN CALIFORNIA,HYDRO,0,0,County,SOUTHERN CALIFORNIA,Hydro,HYDRO,0,Western,left_only
350.0,1,Ormond Beach,OP,1971.0,2027.0,X,741.0,741.0,NG,,Natural Gas Steam Turbine,ST,Operable,34.1292,-119.1689,WECC,CISO,CA,Ventura,Southern California Edison Co,SOUTHERN CALIFORNIA,GAS (SINGLE FUEL),1,0,County,SOUTHERN CALIFORNIA,NG ST,GAS,0,Western,left_only
350.0,2,Ormond Beach,OP,1973.0,2027.0,X,750.0,750.0,NG,,Natural Gas Steam Turbine,ST,Operable,34.1292,-119.1689,WECC,CISO,CA,Ventura,Southern California Edison Co,SOUTHERN CALIFORNIA,GAS (SINGLE FUEL),1,0,County,SOUTHERN CALIFORNIA,NG ST,GAS,0,Western,left_only
365.0,1,Lower Tule River,OS,1909.0,,X,1.3,1.3,WAT,,Conventional Hydroelectric,HY,Operable,36.13568,-118.788868,WECC,CISO,CA,Tulare,Southern California Edison Co,SOUTHERN CALIFORNIA,HYDRO,0,0,County,SOUTHERN CALIFORNIA,Hydro,HYDRO,0,Western,left_only
365.0,2,Lower Tule River,OS,1909.0,,X,1.3,1.3,WAT,,Conventional Hydroelectric,HY,Operable,36.13568,-118.788868,WECC,CISO,CA,Tulare,Southern California Edison Co,SOUTHERN CALIFORNIA,HYDRO,0,0,County,SOUTHERN CALIFORNIA,Hydro,HYDRO,0,Western,left_only
435.0,H4,White Rock/Slab Creek,OS,1983.0,2024.0,X,0.5,0.5,WAT,,Conventional Hydroelectric,HY,Operable,38.765336,-120.787366,WECC,BANC,CA,El Dorado,Sacramento Municipal Util Dist,NORTHERN CALIFORNIA,HYDRO,1,0,Northern California,Northern California,Hydro,HYDRO,0,Western,left_only
464.0,CT1,Alamosa,OP,1973.0,2026.0,X,13.0,17.0,DFO,NG,Petroleum Liquids,GT,Operable,37.4594,-105.8947,WECC,PSCO,CO,Alamosa,Public Service Co of Colorado,FRONT RANGE,GAS (DUAL FUEL),1,0,Front Range,Front Range,Oil CT,OIL,0,Western,left_only
464.0,CT2,Alamosa,OP,1977.0,2026.0,X,14.0,18.0,DFO,NG,Petroleum Liquids,GT,Operable,37.4594,-105.8947,WECC,PSCO,CO,Alamosa,Public Service Co of Colorado,FRONT RANGE,GAS (DUAL FUEL),1,0,Front Range,Front Range,Oil CT,OIL,0,Western,left_only
469.0,4,Cherokee,OP,1968.0,2027.0,X,310.0,310.0,NG,,Natural Gas Steam Turbine,ST,Operable,39.807275,-104.964548,WECC,PSCO,CO,Adams,Public Service Co of Colorado,FRONT RANGE,GAS (SINGLE FUEL),1,0,Front Range,Front Range,NG ST,GAS,0,Western,left_only
470.0,2,Comanche (CO),OP,1975.0,2025.0,X,335.0,335.0,SUB,NG,Conventional Steam Coal,ST,Operable,38.2081,-104.5747,WECC,WACM,CO,Pueblo,Public Service Co of Colorado,FRONT RANGE,COAL,1,0,Front Range,Front Range,Coal ST,COAL,0,Western,left_only
471.0,1,Fruita,OP,1973.0,2026.0,X,14.0,18.0,NG,DFO,Natural Gas Fired Combustion Turbine,GT,Operable,39.1364,-108.7347,WECC,PSCO,CO,Mesa,Public Service Co of Colorado,FRONT RANGE,GAS (DUAL FUEL),1,0,Front Range,Front Range,NG CT,GAS,1,Western,left_only
474.0,2,Salida,OP,1908.0,2027.0,X,0.6,0.6,WAT,,Conventional Hydroelectric,HY,Operable,38.53419,-106.182003,WECC,PSCO,CO,Chaffee,Public Service Co of Colorado,FRONT RANGE,HYDRO,1,0,Front Range,Front Range,Hydro,HYDRO,0,Western,left_only
477.0,6,Valmont,OP,1973.0,2026.0,X,43.0,51.0,NG,,Natural Gas Fired Combustion Turbine,GT,Operable,40.0195,-105.202,WECC,PSCO,CO,Boulder,Public Service Co of Colorado,FRONT RANGE,GAS (SINGLE FUEL),1,0,Front Range,Front Range,NG CT,GAS,0,Western,left_only
502.0,5,Holly,SB,2000.0,,Y,0.3,0.3,DFO,,Petroleum Liquids,IC,Operable,38.032717,-102.073659,WECC,WACM,CO,Prowers,Town of Holly - (CO),FRONT RANGE,OIL,0,0,Front Range,Front Range,Oil IC,OIL,0,Western,left_only
502.0,CAT,Holly,SB,2007.0,,Y,1.7,1.8,DFO,,Petroleum Liquids,IC,Operable,38.032717,-102.073659,WECC,WACM,CO,Prowers,Town of Holly - (CO),FRONT RANGE,OIL,0,0,Front Range,Front Range,Oil IC,OIL,0,Western,left_only
502.0,EMD,Holly,SB,1993.0,,Y,0.7,0.8,DFO,,Petroleum Liquids,IC,Operable,38.032717,-102.073659,WECC,WACM,CO,Prowers,Town of Holly - (CO),FRONT RANGE,OIL,0,0,Front Range,Front Range,Oil IC,OIL,0,Western,left_only
504.0,1,Julesburg,SB,1951.0,,N,0.7,0.7,DFO,,Petroleum Liquids,IC,Operable,40.9505,-102.2795,WECC,WACM,CO,Sedgwick,WAPA-- Western Area Power Administration,FRONT RANGE,OIL,0,0,Front Range,Front Range,Oil IC,OIL,0,Western,left_only
504.0,3,Julesburg,SB,1945.0,,N,0.2,0.2,DFO,,Petroleum Liquids,IC,Operable,40.9505,-102.2795,WECC,WACM,CO,Sedgwick,WAPA-- Western Area Power Administration,FRONT RANGE,OIL,0,0,Front Range,Front Range,Oil IC,OIL,0,Western,left_only
504.0,4,Julesburg,SB,1964.0,,N,1.1,1.1,DFO,,Petroleum Liquids,IC,Operable,40.9505,-102.2795,WECC,WACM,CO,Sedgwick,WAPA-- Western Area Power Administration,FRONT RANGE,OIL,0,0,Front Range,Front Range,Oil IC,OIL,0,Western,left_only
504.0,5,Julesburg,SB,1946.0,,N,0.2,0.2,DFO,,Petroleum Liquids,IC,Operable,40.9505,-102.2795,WECC,WACM,CO,Sedgwick,WAPA-- Western Area Power Administration,FRONT RANGE,OIL,0,0,Front Range,Front Range,Oil IC,OIL,0,Western,left_only
508.0,IC1,Lamar Plant,OS,1949.0,,X,1.0,1.0,DFO,,Petroleum Liquids,IC,Operable,38.033327,-102.537915,WECC,PSCO,CO,Prowers,City of Lamar - (CO),FRONT RANGE,OIL,0,0,Front Range,Front Range,Oil IC,OIL,0,Western,left_only
508.0,IC2,Lamar Plant,OS,1946.0,,X,1.0,1.0,DFO,,Petroleum Liquids,IC,Operable,38.033327,-102.537915,WECC,PSCO,CO,Prowers,City of Lamar - (CO),FRONT RANGE,OIL,0,0,Front Range,Front Range,Oil IC,OIL,0,Western,left_only
511.0,3,Trinidad (CO),SB,1966.0,,Y,1.9,1.9,NG,DFO,Natural Gas Internal Combustion Engine,IC,Operable,37.178979,-104.487492,WECC,WACM,CO,Las Animas,"San Isabel Electric Assn, Inc",FRONT RANGE,GAS (DUAL FUEL),0,0,Front Range,Front Range,NG IC,GAS,1,Western,left_only
511.0,4,Trinidad (CO),SB,1966.0,,Y,1.9,1.9,NG,DFO,Natural Gas Internal Combustion Engine,IC,Operable,37.178979,-104.487492,WECC,WACM,CO,Las Animas,"San Isabel Electric Assn, Inc",FRONT RANGE,GAS (DUAL FUEL),0,0,Front Range,Front Range,NG IC,GAS,1,Western,left_only
525.0,1,Hayden,OP,1965.0,2028.0,X,179.0,179.0,BIT,NG,Conventional Steam Coal,ST,Operable,40.4856,-107.185,WECC,PSCO,CO,Routt,WAPA-- Western Area Power Administration,FRONT RANGE,COAL,1,0,Front Range,Front Range,Coal ST,COAL,0,Western,left_only
525.0,2,Hayden,OP,1976.0,2027.0,X,262.0,262.0,BIT,DFO,Conventional Steam Coal,ST,Operable,40.4856,-107.185,WECC,PSCO,CO,Routt,WAPA-- Western Area Power Administration,FRONT RANGE,COAL,1,0,Front Range,Front Range,Coal ST,COAL,0,Western,left_only
546.0,10,Montville Station,SB,1967.0,,Y,2.7,2.7,DFO,,Petroleum Liquids,IC,Operable,41.4281,-72.1019,NPCC,ISNE,CT,New London,Connecticut Light & Power Co,ISONE,OIL,0,0,ISONE,ISONE,Oil IC,OIL,0,Eastern,left_only
546.0,11,Montville Station,SB,1967.0,,Y,2.7,2.7,DFO,,Petroleum Liquids,IC,Operable,41.4281,-72.1019,NPCC,ISNE,CT,New London,Connecticut Light & Power Co,ISONE,OIL,0,0,ISONE,ISONE,Oil IC,OIL,0,Eastern,left_only
557.0,10,Tunnel,SB,1969.0,,Y,16.5,21.8,JF,,Petroleum Liquids,GT,Operable,41.555425,-72.041829,NPCC,ISNE,CT,New London,Connecticut Light & Power Co,ISONE,OIL,0,0,ISONE,ISONE,Oil CT,OIL,0,Eastern,left_only
564.0,1,Stanton Energy Center,OP,1987.0,2025.0,X,453.4,453.4,BIT,NG,Conventional Steam Coal,ST,Operable,28.4822,-81.1678,SERC,FMPP,FL,Orange,Orlando Utilities Comm,SERC-FL,COAL,1,0,SERC-FL,SERC-FL,Coal ST,COAL,0,Eastern,left_only
579.0,1,Central Hudson High Falls,OP,1986.0,2025.0,X,3.2,3.2,WAT,,Conventional Hydroelectric,HY,Operable,41.828814,-74.131877,NPCC,NYIS,NY,Ulster,Central Hudson Gas & Elec Corp,NYISO,HYDRO,1,0,NYISO,NYISO,Hydro,HYDRO,0,Eastern,left_only
591.0,CH11,Christiana,SB,1973.0,,Y,25.0,25.0,DFO,,Petroleum Liquids,GT,Operable,39.7302,-75.5371,RFC,PJM,DE,New Castle,Delmarva Power,PJM-S,OIL,0,0,PJM-E,PJM-E,Oil CT,OIL,0,Eastern,left_only
591.0,CH14,Christiana,SB,1973.0,,Y,25.0,25.0,DFO,,Petroleum Liquids,GT,Operable,39.7302,-75.5371,RFC,PJM,DE,New Castle,Delmarva Power,PJM-S,OIL,0,0,PJM-E,PJM-E,Oil CT,OIL,0,Eastern,left_only
592.0,DC10,Delaware City 10,SB,1968.0,,Y,18.0,18.0,DFO,,Petroleum Liquids,GT,Operable,39.600408,-75.626811,RFC,PJM,DE,New Castle,Delmarva Power,PJM-S,OIL,0,0,PJM-E,PJM-E,Oil CT,OIL,0,Eastern,left_only
593.0,10,Edge Moor,SB,1963.0,,Y,12.0,15.0,DFO,,Petroleum Liquids,GT,Operable,39.73886,-75.50384,RFC,PJM,DE,New Castle,Delmarva Power,PJM-S,OIL,0,0,PJM-E,PJM-E,Oil CT,OIL,0,Eastern,left_only
594.0,4,Indian River Generating Station,OP,1980.0,2026.0,X,410.0,410.0,BIT,,Conventional Steam Coal,ST,Operable,38.5857,-75.2341,RFC,PJM,DE,Sussex,Delmarva Power,PJM-S,COAL,1,0,PJM-E,PJM-E,Coal ST,COAL,0,Eastern,left_only
597.0,WEST,West Station (DE),SB,1964.0,,Y,15.0,19.0,DFO,,Petroleum Liquids,GT,Operable,39.7283,-75.6289,RFC,PJM,DE,New Castle,Delmarva Power,PJM-S,OIL,0,0,PJM-E,PJM-E,Oil CT,OIL,0,Eastern,left_only
602.0,1,Brandon Shores,OP,1984.0,2025.0,X,635.0,635.0,BIT,,Conventional Steam Coal,ST,Operable,39.182073,-76.537151,RFC,PJM,MD,Anne Arundel,Baltimore Gas & Electric Co,PJM-S,COAL,1,0,PJM-S,PJM-S,Coal ST,COAL,0,Eastern,left_only
602.0,2,Brandon Shores,OP,1991.0,2025.0,X,638.0,638.0,BIT,,Conventional Steam Coal,ST,Operable,39.182073,-76.537151,RFC,PJM,MD,Anne Arundel,Baltimore Gas & Electric Co,PJM-S,COAL,1,0,PJM-S,PJM-S,Coal ST,COAL,0,Eastern,left_only
607.0,1,Fredonia,SB,1984.0,,Y,93.0,114.0,NG,DFO,Natural Gas Fired Combustion Turbine,GT,Operable,48.4558,-122.4358,WECC,PSEI,WA,Skagit,Puget Sound Energy Inc,WASHINGTON REGION,GAS (DUAL FUEL),0,0,Washington Region,Washington Region,NG CT,GAS,1,Western,left_only
607.0,2,Fredonia,SB,1984.0,,Y,93.0,114.0,NG,DFO,Natural Gas Fired Combustion Turbine,GT,Operable,48.4558,-122.4358,WECC,PSEI,WA,Skagit,Puget Sound Energy Inc,WASHINGTON REGION,GAS (DUAL FUEL),0,0,Washington Region,Washington Region,NG CT,GAS,1,Western,left_only
607.0,3,Fredonia,SB,2001.0,,Y,47.0,60.0,NG,DFO,Natural Gas Fired Combustion Turbine,GT,Operable,48.4558,-122.4358,WECC,PSEI,WA,Skagit,Puget Sound Energy Inc,WASHINGTON REGION,GAS (DUAL FUEL),0,0,Washington Region,Washington Region,NG CT,GAS,1,Western,left_only
607.0,4,Fredonia,SB,2001.0,,Y,47.0,60.0,NG,DFO,Natural Gas Fired Combustion Turbine,GT,Operable,48.4558,-122.4358,WECC,PSEI,WA,Skagit,Puget Sound Energy Inc,WASHINGTON REGION,GAS (DUAL FUEL),0,0,Washington Region,Washington Region,NG CT,GAS,1,Western,left_only
626.0,1,Oak Flat,OS,1985.0,,X,1.3,1.3,WAT,,Conventional Hydroelectric,HY,Operable,40.07531,-121.16143,WECC,CISO,CA,Plumas,Pacific Gas & Electric Co,NORTHERN CALIFORNIA,HYDRO,0,0,County,NORTHERN CALIFORNIA,Hydro,HYDRO,0,Western,left_only
643.0,3A,Lansing Smith,OP,2002.0,,X,,,NG,,Natural Gas Fired Combined Cycle,CT,Operable,30.2686,-85.7003,SERC,SOCO,FL,Bay,Florida Power & Light Co,SERC-FL,GAS (SINGLE FUEL),0,0,SERC-FL,SERC-FL,NG CC,GAS,0,Eastern,left_only
643.0,3B,Lansing Smith,OP,2002.0,,X,,,NG,,Natural Gas Fired Combined Cycle,CT,Operable,30.2686,-85.7003,SERC,SOCO,FL,Bay,Florida Power & Light Co,SERC-FL,GAS (SINGLE FUEL),0,0,SERC-FL,SERC-FL,NG CC,GAS,0,Eastern,left_only
663.0,1,Deerhaven Generating Station,OP,1972.0,2027.0,X,76.0,76.0,NG,RFO,Natural Gas Steam Turbine,ST,Operable,29.7592,-82.3878,SERC,GVL,FL,Alachua,Gainesville Regional Utilities,SERC-FL,GAS (DUAL FUEL),1,0,SERC-FL,SERC-FL,NG ST,GAS,1,Eastern,left_only
663.0,GT1,Deerhaven Generating Station,SB,1976.0,2026.0,Y,17.5,22.0,NG,DFO,Natural Gas Fired Combustion Turbine,GT,Operable,29.7592,-82.3878,SERC,GVL,FL,Alachua,Gainesville Regional Utilities,SERC-FL,GAS (DUAL FUEL),1,0,SERC-FL,SERC-FL,NG CT,GAS,1,Eastern,left_only
663.0,GT2,Deerhaven Generating Station,SB,1976.0,2026.0,Y,17.5,22.0,NG,DFO,Natural Gas Fired Combustion Turbine,GT,Operable,29.7592,-82.3878,SERC,GVL,FL,Alachua,Gainesville Regional Utilities,SERC-FL,GAS (DUAL FUEL),1,0,SERC-FL,SERC-FL,NG CT,GAS,1,Eastern,left_only
665.0,22,G W Ivey,SB,2013.0,,N,0.1,0.1,DFO,,Petroleum Liquids,IC,Operable,25.4756,-80.47,SERC,HST,FL,Miami Dade,City of Homestead - (FL),SERC-FL,OIL,0,0,SERC-FL,SERC-FL,Oil IC,OIL,0,Eastern,left_only
673.0,MU1,Tom G Smith,SB,1965.0,,N,2.0,2.0,DFO,,Petroleum Liquids,IC,Operable,26.612767,-80.0677,SERC,FMPP,FL,Palm Beach,City of Lake Worth - (FL),SERC-FL,OIL,0,0,SERC-FL,SERC-FL,Oil IC,OIL,0,Eastern,left_only
673.0,MU2,Tom G Smith,SB,1965.0,,N,2.0,2.0,DFO,,Petroleum Liquids,IC,Operable,26.612767,-80.0677,SERC,FMPP,FL,Palm Beach,City of Lake Worth - (FL),SERC-FL,OIL,0,0,SERC-FL,SERC-FL,Oil IC,OIL,0,Eastern,left_only
673.0,MU4,Tom G Smith,SB,1965.0,,N,2.0,2.0,DFO,,Petroleum Liquids,IC,Operable,26.612767,-80.0677,SERC,FMPP,FL,Palm Beach,City of Lake Worth - (FL),SERC-FL,OIL,0,0,SERC-FL,SERC-FL,Oil IC,OIL,0,Eastern,left_only
673.0,MU5,Tom G Smith,SB,1965.0,,N,2.0,2.0,DFO,,Petroleum Liquids,IC,Operable,26.612767,-80.0677,SERC,FMPP,FL,Palm Beach,City of Lake Worth - (FL),SERC-FL,OIL,0,0,SERC-FL,SERC-FL,Oil IC,OIL,0,Eastern,left_only
674.0,1,Pilot Butte,OS,1925.0,,X,0.8,0.7,WAT,,Conventional Hydroelectric,HY,Operable,43.219017,-108.787681,WECC,WAUW,WY,Fremont,WAPA-- Western Area Power Administration,WASATCH FRONT,HYDRO,0,0,County,WASATCH FRONT,Hydro,HYDRO,0,Western,left_only
674.0,2,Pilot Butte,OS,1929.0,,X,0.8,0.8,WAT,,Conventional Hydroelectric,HY,Operable,43.219017,-108.787681,WECC,WAUW,WY,Fremont,WAPA-- Western Area Power Administration,WASATCH FRONT,HYDRO,0,0,County,WASATCH FRONT,Hydro,HYDRO,0,Western,left_only
675.0,2,Larsen Memorial,OS,1962.0,,X,10.0,14.0,NG,,Natural Gas Fired Combustion Turbine,GT,Operable,28.0491,-81.9238,SERC,FMPP,FL,Polk,City of Lakeland - (FL),SERC-FL,GAS (SINGLE FUEL),0,0,SERC-FL,SERC-FL,NG CT,GAS,0,Eastern,left_only
675.0,3,Larsen Memorial,OS,1962.0,,X,9.0,13.0,NG,,Natural Gas Fired Combustion Turbine,GT,Operable,28.0491,-81.9238,SERC,FMPP,FL,Polk,City of Lakeland - (FL),SERC-FL,GAS (SINGLE FUEL),0,0,SERC-FL,SERC-FL,NG CT,GAS,0,Eastern,left_only
696.0,10,Marathon Generating Plant,SB,1998.0,,Y,3.5,3.5,DFO,,Petroleum Liquids,IC,Operable,24.710833,-81.0927,SERC,FPL,FL,Monroe,"Florida Keys El Coop Assn, Inc",SERC-FL,OIL,0,0,SERC-FL,SERC-FL,Oil IC,OIL,0,Eastern,left_only
696.0,11,Marathon Generating Plant,SB,2001.0,,Y,3.5,3.5,DFO,,Petroleum Liquids,IC,Operable,24.710833,-81.0927,SERC,FPL,FL,Monroe,"Florida Keys El Coop Assn, Inc",SERC-FL,OIL,0,0,SERC-FL,SERC-FL,Oil IC,OIL,0,Eastern,left_only
696.0,8,Marathon Generating Plant,SB,1989.0,,Y,2.0,2.0,DFO,,Petroleum Liquids,IC,Operable,24.710833,-81.0927,SERC,FPL,FL,Monroe,"Florida Keys El Coop Assn, Inc",SERC-FL,OIL,0,0,SERC-FL,SERC-FL,Oil IC,OIL,0,Eastern,left_only
696.0,9,Marathon Generating Plant,SB,1989.0,,Y,2.0,2.0,DFO,,Petroleum Liquids,IC,Operable,24.710833,-81.0927,SERC,FPL,FL,Monroe,"Florida Keys El Coop Assn, Inc",SERC-FL,OIL,0,0,SERC-FL,SERC-FL,Oil IC,OIL,0,Eastern,left_only
754.0,3,Hartwell Lake,OS,1962.0,,X,85.0,85.0,WAT,,Conventional Hydroelectric,HY,Operable,34.3564,-82.8219,SERC,SEPA,GA,Hart,Georgia Power Co,SERC-SE,HYDRO,0,0,SERC-SE,SERC-SE,Hydro,HYDRO,0,Eastern,left_only
817.0,1,Salmon Diesel,SB,1967.0,,Y,2.7,2.7,DFO,,Petroleum Liquids,IC,Operable,45.183368,-113.885307,WECC,IPCO,ID,Lemhi,Idaho Power Co,WASATCH FRONT,OIL,0,0,Wasatch Front,Wasatch Front,Oil IC,OIL,0,Western,left_only
817.0,2,Salmon Diesel,SB,1967.0,,Y,2.7,2.7,DFO,,Petroleum Liquids,IC,Operable,45.183368,-113.885307,WECC,IPCO,ID,Lemhi,Idaho Power Co,WASATCH FRONT,OIL,0,0,Wasatch Front,Wasatch Front,Oil IC,OIL,0,Western,left_only
835.0,6,Post Falls,OS,1980.0,,X,3.5,3.5,WAT,,Conventional Hydroelectric,HY,Operable,47.703333,-116.953889,WECC,AVA,ID,Kootenai,Avista Corp,WASHINGTON REGION,HYDRO,0,0,Wasatch Front,Wasatch Front,Hydro,HYDRO,0,Western,left_only
862.0,1,Grand Tower Energy Center LLC,OS,2001.0,,X,161.0,182.0,NG,,Natural Gas Fired Combined Cycle,CT,Operable,37.6577,-89.511161,SERC,MISO,IL,Jackson,Ameren Illinois Company,MISO-C,GAS (SINGLE FUEL),0,0,MISO-C,MISO-C,NG CC,GAS,0,Eastern,left_only
862.0,2,Grand Tower Energy Center LLC,OS,2001.0,,X,159.0,178.0,NG,,Natural Gas Fired Combined Cycle,CT,Operable,37.6577,-89.511161,SERC,MISO,IL,Jackson,Ameren Illinois Company,MISO-C,GAS (SINGLE FUEL),0,0,MISO-C,MISO-C,NG CC,GAS,0,Eastern,left_only
862.0,3,Grand Tower Energy Center LLC,OS,1951.0,,X,86.0,86.0,NG,,Natural Gas Fired Combined Cycle,CA,Operable,37.6577,-89.511161,SERC,MISO,IL,Jackson,Ameren Illinois Company,MISO-C,GAS (SINGLE FUEL),0,0,MISO-C,MISO-C,NG CC,GAS,0,Eastern,left_only
862.0,4,Grand Tower Energy Center LLC,OS,1958.0,,X,105.0,105.0,NG,,Natural Gas Fired Combined Cycle,CA,Operable,37.6577,-89.511161,SERC,MISO,IL,Jackson,Ameren Illinois Company,MISO-C,GAS (SINGLE FUEL),0,0,MISO-C,MISO-C,NG CC,GAS,0,Eastern,left_only
876.0,1,Kincaid Generation LLC,OP,1967.0,2027.0,X,556.0,556.0,SUB,,Conventional Steam Coal,ST,Operable,39.590556,-89.496389,RFC,PJM,IL,Christian,Commonwealth Edison Co,PJM-W,COAL,1,0,PJM-W,PJM-W,Coal ST,COAL,0,Eastern,left_only
876.0,2,Kincaid Generation LLC,OP,1968.0,2027.0,X,556.0,556.0,SUB,,Conventional Steam Coal,ST,Operable,39.590556,-89.496389,RFC,PJM,IL,Christian,Commonwealth Edison Co,PJM-W,COAL,1,0,PJM-W,PJM-W,Coal ST,COAL,0,Eastern,left_only
883.0,311,Waukegan,SB,1968.0,,Y,24.6,33.9,DFO,,Petroleum Liquids,GT,Operable,42.3833,-87.8133,RFC,PJM,IL,Lake,Commonwealth Edison Co,PJM-W,OIL,0,0,PJM-W,PJM-W,Oil CT,OIL,0,Eastern,left_only
883.0,312,Waukegan,SB,1968.0,,Y,28.5,37.4,DFO,,Petroleum Liquids,GT,Operable,42.3833,-87.8133,RFC,PJM,IL,Lake,Commonwealth Edison Co,PJM-W,OIL,0,0,PJM-W,PJM-W,Oil CT,OIL,0,Eastern,left_only
883.0,321,Waukegan,SB,1968.0,,Y,28.0,37.4,DFO,,Petroleum Liquids,GT,Operable,42.3833,-87.8133,RFC,PJM,IL,Lake,Commonwealth Edison Co,PJM-W,OIL,0,0,PJM-W,PJM-W,Oil CT,OIL,0,Eastern,left_only
883.0,322,Waukegan,SB,1968.0,,Y,26.7,35.0,DFO,,Petroleum Liquids,GT,Operable,42.3833,-87.8133,RFC,PJM,IL,Lake,Commonwealth Edison Co,PJM-W,OIL,0,0,PJM-W,PJM-W,Oil CT,OIL,0,Eastern,left_only
886.0,341,Fisk Street,OS,1968.0,,X,25.4,34.0,DFO,,Petroleum Liquids,GT,Operable,41.8508,-87.6533,RFC,PJM,IL,Cook,Commonwealth Edison Co,PJM-W,OIL,0,0,PJM-W,PJM-W,Oil CT,OIL,0,Eastern,left_only
889.0,1,Baldwin Energy Complex,OP,1970.0,2025.0,X,576.0,590.0,SUB,,Conventional Steam Coal,ST,Operable,38.205,-89.8544,SERC,MISO,IL,Randolph,Ameren Illinois Company,MISO-C,COAL,1,0,MISO-C,MISO-C,Coal ST,COAL,0,Eastern,left_only
889.0,2,Baldwin Energy Complex,OP,1973.0,2025.0,X,581.0,595.0,SUB,,Conventional Steam Coal,ST,Operable,38.205,-89.8544,SERC,MISO,IL,Randolph,Ameren Illinois Company,MISO-C,COAL,1,0,MISO-C,MISO-C,Coal ST,COAL,0,Eastern,left_only
902.0,1,Bottle Rock Power,OS,1985.0,,X,9.0,9.0,GEO,,Geothermal,ST,Operable,38.8348,-122.7677,WECC,CISO,CA,Lake,Pacific Gas & Electric Co,NORTHERN CALIFORNIA,GEOTHERMAL,0,0,County,NORTHERN CALIFORNIA,Geothermal,GEOTHERMAL,0,Western,left_only
934.0,2,Breese,SB,1982.0,,Y,3.0,3.0,DFO,NG,Petroleum Liquids,IC,Operable,38.607456,-89.524514,SERC,MISO,IL,Clinton,City of Breese - (IL),MISO-C,OIL,0,0,MISO-C,MISO-C,Oil IC,OIL,0,Eastern,left_only
934.0,5,Breese,SB,1992.0,,Y,2.5,2.5,DFO,,Petroleum Liquids,IC,Operable,38.607456,-89.524514,SERC,MISO,IL,Clinton,City of Breese - (IL),MISO-C,OIL,0,0,MISO-C,MISO-C,Oil IC,OIL,0,Eastern,left_only
934.0,6,Breese,SB,1997.0,,Y,2.5,2.5,DFO,,Petroleum Liquids,IC,Operable,38.607456,-89.524514,SERC,MISO,IL,Clinton,City of Breese - (IL),MISO-C,OIL,0,0,MISO-C,MISO-C,Oil IC,OIL,0,Eastern,left_only
934.0,7,Breese,SB,2008.0,,Y,2.5,2.5,DFO,,Petroleum Liquids,IC,Operable,38.607456,-89.524514,SERC,MISO,IL,Clinton,City of Breese - (IL),MISO-C,OIL,0,0,MISO-C,MISO-C,Oil IC,OIL,0,Eastern,left_only
934.0,8,Breese,SB,2014.0,,Y,2.5,2.5,DFO,,Petroleum Liquids,IC,Operable,38.607456,-89.524514,SERC,MISO,IL,Clinton,City of Breese - (IL),MISO-C,OIL,0,0,MISO-C,MISO-C,Oil IC,OIL,0,Eastern,left_only
934.0,IC1,Breese,SB,1953.0,,Y,1.0,1.0,DFO,,Petroleum Liquids,IC,Operable,38.607456,-89.524514,SERC,MISO,IL,Clinton,City of Breese - (IL),MISO-C,OIL,0,0,MISO-C,MISO-C,Oil IC,OIL,0,Eastern,left_only
934.0,IC3,Breese,SB,1968.0,,Y,3.0,3.0,DFO,NG,Petroleum Liquids,IC,Operable,38.607456,-89.524514,SERC,MISO,IL,Clinton,City of Breese - (IL),MISO-C,OIL,0,0,MISO-C,MISO-C,Oil IC,OIL,0,Eastern,left_only
935.0,1,Bushnell,SB,1940.0,,Y,0.2,0.2,DFO,,Petroleum Liquids,IC,Operable,40.548586,-90.513814,SERC,MISO,IL,McDonough,City of Bushnell - (IL),MISO-C,OIL,0,0,MISO-C,MISO-C,Oil IC,OIL,0,Eastern,left_only
935.0,2,Bushnell,SB,1940.0,,Y,0.2,0.2,DFO,,Petroleum Liquids,IC,Operable,40.548586,-90.513814,SERC,MISO,IL,McDonough,City of Bushnell - (IL),MISO-C,OIL,0,0,MISO-C,MISO-C,Oil IC,OIL,0,Eastern,left_only
935.0,3,Bushnell,SB,1965.0,,Y,2.2,2.2,DFO,,Petroleum Liquids,IC,Operable,40.548586,-90.513814,SERC,MISO,IL,McDonough,City of Bushnell - (IL),MISO-C,OIL,0,0,MISO-C,MISO-C,Oil IC,OIL,0,Eastern,left_only
935.0,4,Bushnell,SB,1965.0,,Y,2.2,2.2,DFO,,Petroleum Liquids,IC,Operable,40.548586,-90.513814,SERC,MISO,IL,McDonough,City of Bushnell - (IL),MISO-C,OIL,0,0,MISO-C,MISO-C,Oil IC,OIL,0,Eastern,left_only
935.0,5,Bushnell,SB,1956.0,,Y,1.0,1.0,DFO,,Petroleum Liquids,IC,Operable,40.548586,-90.513814,SERC,MISO,IL,McDonough,City of Bushnell - (IL),MISO-C,OIL,0,0,MISO-C,MISO-C,Oil IC,OIL,0,Eastern,left_only
935.0,6,Bushnell,SB,2000.0,,Y,2.5,2.5,DFO,,Petroleum Liquids,IC,Operable,40.548586,-90.513814,SERC,MISO,IL,McDonough,City of Bushnell - (IL),MISO-C,OIL,0,0,MISO-C,MISO-C,Oil IC,OIL,0,Eastern,left_only
935.0,7,Bushnell,SB,2000.0,,Y,2.5,2.5,DFO,,Petroleum Liquids,IC,Operable,40.548586,-90.513814,SERC,MISO,IL,McDonough,City of Bushnell - (IL),MISO-C,OIL,0,0,MISO-C,MISO-C,Oil IC,OIL,0,Eastern,left_only
936.0,7,Carlyle,SB,1964.0,,Y,2.0,2.0,DFO,NG,Petroleum Liquids,IC,Operable,38.6106,-89.3583,SERC,MISO,IL,Clinton,City of Carlyle - (IL),MISO-C,OIL,0,0,MISO-C,MISO-C,Oil IC,OIL,0,Eastern,left_only
943.0,1,Freeburg,OS,1948.0,,X,0.4,0.4,DFO,,Petroleum Liquids,IC,Operable,38.425556,-89.914444,SERC,MISO,IL,St Clair,Village of Freeburg - (IL),MISO-C,OIL,0,0,MISO-C,MISO-C,Oil IC,OIL,0,Eastern,left_only
943.0,10,Freeburg,SB,2007.0,,Y,1.8,1.8,DFO,,Petroleum Liquids,IC,Operable,38.425556,-89.914444,SERC,MISO,IL,St Clair,Village of Freeburg - (IL),MISO-C,OIL,0,0,MISO-C,MISO-C,Oil IC,OIL,0,Eastern,left_only
943.0,11,Freeburg,SB,2007.0,,Y,1.8,1.8,DFO,,Petroleum Liquids,IC,Operable,38.425556,-89.914444,SERC,MISO,IL,St Clair,Village of Freeburg - (IL),MISO-C,OIL,0,0,MISO-C,MISO-C,Oil IC,OIL,0,Eastern,left_only
943.0,12,Freeburg,SB,2007.0,,Y,1.8,1.8,DFO,,Petroleum Liquids,IC,Operable,38.425556,-89.914444,SERC,MISO,IL,St Clair,Village of Freeburg - (IL),MISO-C,OIL,0,0,MISO-C,MISO-C,Oil IC,OIL,0,Eastern,left_only
943.0,2,Freeburg,OS,1948.0,,X,0.4,0.4,DFO,,Petroleum Liquids,IC,Operable,38.425556,-89.914444,SERC,MISO,IL,St Clair,Village of Freeburg - (IL),MISO-C,OIL,0,0,MISO-C,MISO-C,Oil IC,OIL,0,Eastern,left_only
943.0,3,Freeburg,OS,1953.0,,X,0.6,0.6,DFO,,Petroleum Liquids,IC,Operable,38.425556,-89.914444,SERC,MISO,IL,St Clair,Village of Freeburg - (IL),MISO-C,OIL,0,0,MISO-C,MISO-C,Oil IC,OIL,0,Eastern,left_only
943.0,4,Freeburg,OS,1959.0,,X,1.0,1.0,DFO,,Petroleum Liquids,IC,Operable,38.425556,-89.914444,SERC,MISO,IL,St Clair,Village of Freeburg - (IL),MISO-C,OIL,0,0,MISO-C,MISO-C,Oil IC,OIL,0,Eastern,left_only
943.0,6,Freeburg,SB,1974.0,,Y,1.8,1.8,DFO,,Petroleum Liquids,IC,Operable,38.425556,-89.914444,SERC,MISO,IL,St Clair,Village of Freeburg - (IL),MISO-C,OIL,0,0,MISO-C,MISO-C,Oil IC,OIL,0,Eastern,left_only
943.0,7,Freeburg,OS,1986.0,,X,2.6,2.6,DFO,,Petroleum Liquids,IC,Operable,38.425556,-89.914444,SERC,MISO,IL,St Clair,Village of Freeburg - (IL),MISO-C,OIL,0,0,MISO-C,MISO-C,Oil IC,OIL,0,Eastern,left_only
943.0,8,Freeburg,SB,1996.0,,Y,1.8,1.8,DFO,,Petroleum Liquids,IC,Operable,38.425556,-89.914444,SERC,MISO,IL,St Clair,Village of Freeburg - (IL),MISO-C,OIL,0,0,MISO-C,MISO-C,Oil IC,OIL,0,Eastern,left_only
943.0,9,Freeburg,SB,1996.0,,Y,1.8,1.8,DFO,,Petroleum Liquids,IC,Operable,38.425556,-89.914444,SERC,MISO,IL,St Clair,Village of Freeburg - (IL),MISO-C,OIL,0,0,MISO-C,MISO-C,Oil IC,OIL,0,Eastern,left_only
946.0,IC1,Highland,SB,1993.0,,Y,1.6,1.6,DFO,,Petroleum Liquids,IC,Operable,38.7412,-89.6849,SERC,MISO,IL,Madison,City of Highland,MISO-C,OIL,0,0,MISO-C,MISO-C,Oil IC,OIL,0,Eastern,left_only
946.0,IC2,Highland,SB,1993.0,,Y,1.6,1.6,DFO,,Petroleum Liquids,IC,Operable,38.7412,-89.6849,SERC,MISO,IL,Madison,City of Highland,MISO-C,OIL,0,0,MISO-C,MISO-C,Oil IC,OIL,0,Eastern,left_only
946.0,IC3,Highland,SB,1993.0,,Y,1.6,1.6,DFO,,Petroleum Liquids,IC,Operable,38.7412,-89.6849,SERC,MISO,IL,Madison,City of Highland,MISO-C,OIL,0,0,MISO-C,MISO-C,Oil IC,OIL,0,Eastern,left_only
946.0,IC7,Highland,SB,1971.0,,Y,4.0,4.0,DFO,NG,Petroleum Liquids,IC,Operable,38.7412,-89.6849,SERC,MISO,IL,Madison,City of Highland,MISO-C,OIL,0,0,MISO-C,MISO-C,Oil IC,OIL,0,Eastern,left_only
946.0,IC8,Highland,SB,1971.0,,Y,4.0,4.0,DFO,NG,Petroleum Liquids,IC,Operable,38.7412,-89.6849,SERC,MISO,IL,Madison,City of Highland,MISO-C,OIL,0,0,MISO-C,MISO-C,Oil IC,OIL,0,Eastern,left_only
948.0,2,McLeansboro,SB,1950.0,,Y,0.4,0.4,DFO,,Petroleum Liquids,IC,Operable,38.094683,-88.541331,SERC,MISO,IL,Hamilton,City of McLeansboro - (IL),MISO-C,OIL,0,0,MISO-C,MISO-C,Oil IC,OIL,0,Eastern,left_only
948.0,5,McLeansboro,SB,1979.0,,Y,1.8,1.8,DFO,,Petroleum Liquids,IC,Operable,38.094683,-88.541331,SERC,MISO,IL,Hamilton,City of McLeansboro - (IL),MISO-C,OIL,0,0,MISO-C,MISO-C,Oil IC,OIL,0,Eastern,left_only
948.0,6,McLeansboro,SB,1979.0,,Y,2.2,2.2,DFO,,Petroleum Liquids,IC,Operable,38.094683,-88.541331,SERC,MISO,IL,Hamilton,City of McLeansboro - (IL),MISO-C,OIL,0,0,MISO-C,MISO-C,Oil IC,OIL,0,Eastern,left_only
948.0,7,McLeansboro,SB,1995.0,,Y,1.0,1.0,DFO,,Petroleum Liquids,IC,Operable,38.094683,-88.541331,SERC,MISO,IL,Hamilton,City of McLeansboro - (IL),MISO-C,OIL,0,0,MISO-C,MISO-C,Oil IC,OIL,0,Eastern,left_only
948.0,8,McLeansboro,SB,1994.0,,Y,1.0,1.0,DFO,,Petroleum Liquids,IC,Operable,38.094683,-88.541331,SERC,MISO,IL,Hamilton,City of McLeansboro - (IL),MISO-C,OIL,0,0,MISO-C,MISO-C,Oil IC,OIL,0,Eastern,left_only
948.0,9,McLeansboro,SB,2002.0,,Y,2.0,2.0,DFO,,Petroleum Liquids,IC,Operable,38.094683,-88.541331,SERC,MISO,IL,Hamilton,City of McLeansboro - (IL),MISO-C,OIL,0,0,MISO-C,MISO-C,Oil IC,OIL,0,Eastern,left_only
957.0,1,Princeton (IL),SB,1953.0,,Y,2.3,2.3,NG,DFO,Natural Gas Internal Combustion Engine,IC,Operable,41.375528,-89.464872,SERC,MISO,IL,Bureau,City of Princeton - (IL),MISO-C,GAS (DUAL FUEL),0,0,MISO-C,MISO-C,NG IC,GAS,1,Eastern,left_only
957.0,2,Princeton (IL),SB,1958.0,,Y,3.0,3.0,NG,DFO,Natural Gas Internal Combustion Engine,IC,Operable,41.375528,-89.464872,SERC,MISO,IL,Bureau,City of Princeton - (IL),MISO-C,GAS (DUAL FUEL),0,0,MISO-C,MISO-C,NG IC,GAS,1,Eastern,left_only
957.0,3,Princeton (IL),SB,1965.0,,Y,3.4,3.4,NG,DFO,Natural Gas Internal Combustion Engine,IC,Operable,41.375528,-89.464872,SERC,MISO,IL,Bureau,City of Princeton - (IL),MISO-C,GAS (DUAL FUEL),0,0,MISO-C,MISO-C,NG IC,GAS,1,Eastern,left_only
957.0,4,Princeton (IL),SB,1965.0,,Y,3.4,3.4,NG,DFO,Natural Gas Internal Combustion Engine,IC,Operable,41.375528,-89.464872,SERC,MISO,IL,Bureau,City of Princeton - (IL),MISO-C,GAS (DUAL FUEL),0,0,MISO-C,MISO-C,NG IC,GAS,1,Eastern,left_only
957.0,5,Princeton (IL),SB,1971.0,,Y,4.4,4.4,NG,DFO,Natural Gas Internal Combustion Engine,IC,Operable,41.375528,-89.464872,SERC,MISO,IL,Bureau,City of Princeton - (IL),MISO-C,GAS (DUAL FUEL),0,0,MISO-C,MISO-C,NG IC,GAS,1,Eastern,left_only
957.0,6,Princeton (IL),SB,1971.0,,Y,5.5,5.5,NG,DFO,Natural Gas Internal Combustion Engine,IC,Operable,41.375528,-89.464872,SERC,MISO,IL,Bureau,City of Princeton - (IL),MISO-C,GAS (DUAL FUEL),0,0,MISO-C,MISO-C,NG IC,GAS,1,Eastern,left_only
957.0,7,Princeton (IL),SB,1976.0,,Y,7.0,7.0,NG,DFO,Natural Gas Internal Combustion Engine,IC,Operable,41.375528,-89.464872,SERC,MISO,IL,Bureau,City of Princeton - (IL),MISO-C,GAS (DUAL FUEL),0,0,MISO-C,MISO-C,NG IC,GAS,1,Eastern,left_only
957.0,8,Princeton (IL),SB,1976.0,,Y,8.7,8.7,NG,DFO,Natural Gas Internal Combustion Engine,IC,Operable,41.375528,-89.464872,SERC,MISO,IL,Bureau,City of Princeton - (IL),MISO-C,GAS (DUAL FUEL),0,0,MISO-C,MISO-C,NG IC,GAS,1,Eastern,left_only
961.0,1,South Main Street,SB,1967.0,,Y,1.6,1.6,NG,DFO,Natural Gas Internal Combustion Engine,IC,Operable,41.9092,-89.0504,RFC,PJM,IL,Ogle,Rochelle Municipal Utilities,PJM-W,GAS (DUAL FUEL),0,0,PJM-W,PJM-W,NG IC,GAS,1,Eastern,left_only
961.0,13,South Main Street,SB,2014.0,,Y,1.8,1.8,DFO,,Petroleum Liquids,IC,Operable,41.9092,-89.0504,RFC,PJM,IL,Ogle,Rochelle Municipal Utilities,PJM-W,OIL,0,0,PJM-W,PJM-W,Oil IC,OIL,0,Eastern,left_only
961.0,14,South Main Street,SB,2014.0,,Y,1.8,1.8,DFO,,Petroleum Liquids,IC,Operable,41.9092,-89.0504,RFC,PJM,IL,Ogle,Rochelle Municipal Utilities,PJM-W,OIL,0,0,PJM-W,PJM-W,Oil IC,OIL,0,Eastern,left_only
961.0,15,South Main Street,SB,2014.0,,Y,1.8,1.8,DFO,,Petroleum Liquids,IC,Operable,41.9092,-89.0504,RFC,PJM,IL,Ogle,Rochelle Municipal Utilities,PJM-W,OIL,0,0,PJM-W,PJM-W,Oil IC,OIL,0,Eastern,left_only
961.0,2,South Main Street,SB,1967.0,,Y,2.0,2.0,NG,DFO,Natural Gas Internal Combustion Engine,IC,Operable,41.9092,-89.0504,RFC,PJM,IL,Ogle,Rochelle Municipal Utilities,PJM-W,GAS (DUAL FUEL),0,0,PJM-W,PJM-W,NG IC,GAS,1,Eastern,left_only
963.0,3,Dallman,OS,1978.0,2024.0,X,159.0,159.0,BIT,,Conventional Steam Coal,ST,Operable,39.754803,-89.602389,SERC,MISO,IL,Sangamon,City of Springfield - (IL),MISO-C,COAL,1,0,MISO-C,MISO-C,Coal ST,COAL,0,Eastern,left_only
969.0,10,Sullivan (IL),SB,1971.0,,Y,2.4,2.4,DFO,,Petroleum Liquids,IC,Operable,39.596667,-88.611944,SERC,MISO,IL,Moultrie,City of Sullivan - (IL),MISO-C,OIL,0,0,MISO-C,MISO-C,Oil IC,OIL,0,Eastern,left_only
969.0,11,Sullivan (IL),SB,1996.0,,Y,2.4,2.4,DFO,,Petroleum Liquids,IC,Operable,39.596667,-88.611944,SERC,MISO,IL,Moultrie,City of Sullivan - (IL),MISO-C,OIL,0,0,MISO-C,MISO-C,Oil IC,OIL,0,Eastern,left_only
969.0,12,Sullivan (IL),SB,1996.0,,Y,1.1,1.1,DFO,,Petroleum Liquids,IC,Operable,39.596667,-88.611944,SERC,MISO,IL,Moultrie,City of Sullivan - (IL),MISO-C,OIL,0,0,MISO-C,MISO-C,Oil IC,OIL,0,Eastern,left_only
969.0,2,Sullivan (IL),SB,1961.0,,Y,2.0,2.0,DFO,,Petroleum Liquids,IC,Operable,39.596667,-88.611944,SERC,MISO,IL,Moultrie,City of Sullivan - (IL),MISO-C,OIL,0,0,MISO-C,MISO-C,Oil IC,OIL,0,Eastern,left_only
969.0,3,Sullivan (IL),SB,1956.0,,Y,1.5,1.5,DFO,,Petroleum Liquids,IC,Operable,39.596667,-88.611944,SERC,MISO,IL,Moultrie,City of Sullivan - (IL),MISO-C,OIL,0,0,MISO-C,MISO-C,Oil IC,OIL,0,Eastern,left_only
969.0,5,Sullivan (IL),SB,1948.0,,Y,1.1,1.1,DFO,,Petroleum Liquids,IC,Operable,39.596667,-88.611944,SERC,MISO,IL,Moultrie,City of Sullivan - (IL),MISO-C,OIL,0,0,MISO-C,MISO-C,Oil IC,OIL,0,Eastern,left_only
969.0,9,Sullivan (IL),SB,1971.0,,Y,2.4,2.4,DFO,,Petroleum Liquids,IC,Operable,39.596667,-88.611944,SERC,MISO,IL,Moultrie,City of Sullivan - (IL),MISO-C,OIL,0,0,MISO-C,MISO-C,Oil IC,OIL,0,Eastern,left_only
971.0,1,Waterloo,SB,1970.0,,Y,2.7,2.7,DFO,NG,Petroleum Liquids,IC,Operable,38.334786,-90.158939,SERC,MISO,IL,Monroe,City of Waterloo - (IL),MISO-C,OIL,0,0,MISO-C,MISO-C,Oil IC,OIL,0,Eastern,left_only
971.0,12,Waterloo,SB,2002.0,,Y,6.6,7.0,NG,DFO,Natural Gas Fired Combustion Turbine,GT,Operable,38.334786,-90.158939,SERC,MISO,IL,Monroe,City of Waterloo - (IL),MISO-C,GAS (DUAL FUEL),0,0,MISO-C,MISO-C,NG CT,GAS,1,Eastern,left_only
971.0,13,Waterloo,SB,2012.0,,Y,6.6,7.0,NG,DFO,Natural Gas Fired Combustion Turbine,GT,Operable,38.334786,-90.158939,SERC,MISO,IL,Monroe,City of Waterloo - (IL),MISO-C,GAS (DUAL FUEL),0,0,MISO-C,MISO-C,NG CT,GAS,1,Eastern,left_only
971.0,2,Waterloo,SB,1954.0,,Y,0.2,0.2,DFO,,Petroleum Liquids,IC,Operable,38.334786,-90.158939,SERC,MISO,IL,Monroe,City of Waterloo - (IL),MISO-C,OIL,0,0,MISO-C,MISO-C,Oil IC,OIL,0,Eastern,left_only
971.0,3,Waterloo,SB,1946.0,,Y,0.2,0.2,DFO,,Petroleum Liquids,IC,Operable,38.334786,-90.158939,SERC,MISO,IL,Monroe,City of Waterloo - (IL),MISO-C,OIL,0,0,MISO-C,MISO-C,Oil IC,OIL,0,Eastern,left_only
971.0,4,Waterloo,SB,1963.0,,Y,1.8,1.8,DFO,NG,Petroleum Liquids,IC,Operable,38.334786,-90.158939,SERC,MISO,IL,Monroe,City of Waterloo - (IL),MISO-C,OIL,0,0,MISO-C,MISO-C,Oil IC,OIL,0,Eastern,left_only
971.0,5,Waterloo,SB,1950.0,,Y,0.4,0.4,DFO,,Petroleum Liquids,IC,Operable,38.334786,-90.158939,SERC,MISO,IL,Monroe,City of Waterloo - (IL),MISO-C,OIL,0,0,MISO-C,MISO-C,Oil IC,OIL,0,Eastern,left_only
971.0,6,Waterloo,SB,1950.0,,Y,0.5,0.5,DFO,,Petroleum Liquids,IC,Operable,38.334786,-90.158939,SERC,MISO,IL,Monroe,City of Waterloo - (IL),MISO-C,OIL,0,0,MISO-C,MISO-C,Oil IC,OIL,0,Eastern,left_only
971.0,7,Waterloo,SB,1959.0,,Y,1.5,1.5,DFO,NG,Petroleum Liquids,IC,Operable,38.334786,-90.158939,SERC,MISO,IL,Monroe,City of Waterloo - (IL),MISO-C,OIL,0,0,MISO-C,MISO-C,Oil IC,OIL,0,Eastern,left_only
971.0,8,Waterloo,SB,1973.0,,Y,2.4,2.4,DFO,,Petroleum Liquids,IC,Operable,38.334786,-90.158939,SERC,MISO,IL,Monroe,City of Waterloo - (IL),MISO-C,OIL,0,0,MISO-C,MISO-C,Oil IC,OIL,0,Eastern,left_only
976.0,5,Marion,SB,2003.0,,Y,70.0,90.0,NG,DFO,Natural Gas Fired Combustion Turbine,GT,Operable,37.619747,-88.953114,SERC,MISO,IL,Williamson,Southern Illinois Elec Coop,MISO-C,GAS (DUAL FUEL),0,0,MISO-C,MISO-C,NG CT,GAS,1,Eastern,left_only
976.0,6,Marion,SB,2003.0,,Y,70.0,90.0,NG,DFO,Natural Gas Fired Combustion Turbine,GT,Operable,37.619747,-88.953114,SERC,MISO,IL,Williamson,Southern Illinois Elec Coop,MISO-C,GAS (DUAL FUEL),0,0,MISO-C,MISO-C,NG CT,GAS,1,Eastern,left_only
997.0,12,Michigan City,OP,1974.0,2028.0,X,455.0,455.0,SUB,BIT,Conventional Steam Coal,ST,Operable,41.7208,-86.9086,RFC,MISO,IN,LaPorte,Northern Indiana Pub Serv Co,MISO-C,COAL,1,0,MISO-C,MISO-C,Coal ST,COAL,0,Eastern,left_only
1004.0,CT1,Edwardsport,OP,2013.0,,X,,,SGC,NG,Coal Integrated Gasification Combined Cycle,CT,Operable,38.8067,-87.2472,RFC,MISO,IN,Knox,Duke Energy Indiana Inc,MISO-C,COAL,0,0,MISO-C,MISO-C,Coal CC,COAL,0,Eastern,left_only
1004.0,CT2,Edwardsport,OP,2013.0,,X,,,SGC,NG,Coal Integrated Gasification Combined Cycle,CT,Operable,38.8067,-87.2472,RFC,MISO,IN,Knox,Duke Energy Indiana Inc,MISO-C,COAL,0,0,MISO-C,MISO-C,Coal CC,COAL,0,Eastern,left_only
1012.0,2,F B Culley,OP,1966.0,2025.0,X,90.0,90.0,BIT,,Conventional Steam Coal,ST,Operable,37.9111,-87.3275,RFC,MISO,IN,Warrick,Southern Indiana Gas & Elec Co,MISO-C,COAL,1,0,MISO-C,MISO-C,Coal ST,COAL,0,Eastern,left_only
1024.0,D1,Crawfordsville Power Plant,SB,1994.0,2024.0,N,0.9,0.9,DFO,,Petroleum Liquids,IC,Operable,40.048889,-86.8992,RFC,MISO,IN,Montgomery,"Crawfordsville Elec, Lgt & Pwr",MISO-C,OIL,1,0,MISO-C,MISO-C,Oil IC,OIL,0,Eastern,left_only
1037.0,D1,Peru (IN),SB,2002.0,,Y,1.8,1.8,DFO,,Petroleum Liquids,IC,Operable,40.7551,-86.0575,RFC,MISO,IN,Miami,City of Peru - (IN),MISO-C,OIL,0,0,MISO-C,MISO-C,Oil IC,OIL,0,Eastern,left_only
1038.0,10,Rensselaer City Light Plant,OS,1971.0,,X,1.9,1.9,DFO,,Petroleum Liquids,IC,Operable,40.939528,-87.154472,RFC,MISO,IN,Jasper,Northern Indiana Pub Serv Co,MISO-C,OIL,0,0,MISO-C,MISO-C,Oil IC,OIL,0,Eastern,left_only
1038.0,11,Rensselaer City Light Plant,OS,1971.0,,X,1.9,1.9,DFO,,Petroleum Liquids,IC,Operable,40.939528,-87.154472,RFC,MISO,IN,Jasper,Northern Indiana Pub Serv Co,MISO-C,OIL,0,0,MISO-C,MISO-C,Oil IC,OIL,0,Eastern,left_only
1038.0,14,Rensselaer City Light Plant,OS,1994.0,,X,4.8,4.8,NG,DFO,Natural Gas Internal Combustion Engine,IC,Operable,40.939528,-87.154472,RFC,MISO,IN,Jasper,Northern Indiana Pub Serv Co,MISO-C,GAS (DUAL FUEL),0,0,MISO-C,MISO-C,NG IC,GAS,1,Eastern,left_only
1038.0,5,Rensselaer City Light Plant,SB,1950.0,,Y,1.8,1.8,DFO,,Petroleum Liquids,IC,Operable,40.939528,-87.154472,RFC,MISO,IN,Jasper,Northern Indiana Pub Serv Co,MISO-C,OIL,0,0,MISO-C,MISO-C,Oil IC,OIL,0,Eastern,left_only
1038.0,6,Rensselaer City Light Plant,SB,1957.0,,Y,2.4,2.4,DFO,,Petroleum Liquids,IC,Operable,40.939528,-87.154472,RFC,MISO,IN,Jasper,Northern Indiana Pub Serv Co,MISO-C,OIL,0,0,MISO-C,MISO-C,Oil IC,OIL,0,Eastern,left_only
1104.0,GT1,Burlington (IA),OA,1994.0,2026.0,X,9.6,13.1,NG,,Natural Gas Fired Combustion Turbine,GT,Operable,40.7412,-91.116667,MRO,MISO,IA,Des Moines,ITC Midwest LLC,MISO-W,GAS (SINGLE FUEL),1,0,MISO-W,MISO-W,NG CT,GAS,0,Eastern,left_only
1104.0,GT2,Burlington (IA),OP,1995.0,2026.0,X,9.7,15.9,NG,,Natural Gas Fired Combustion Turbine,GT,Operable,40.7412,-91.116667,MRO,MISO,IA,Des Moines,ITC Midwest LLC,MISO-W,GAS (SINGLE FUEL),1,0,MISO-W,MISO-W,NG CT,GAS,0,Eastern,left_only
1104.0,GT3,Burlington (IA),OP,1996.0,2026.0,X,12.1,15.5,NG,,Natural Gas Fired Combustion Turbine,GT,Operable,40.7412,-91.116667,MRO,MISO,IA,Des Moines,ITC Midwest LLC,MISO-W,GAS (SINGLE FUEL),1,0,MISO-W,MISO-W,NG CT,GAS,0,Eastern,left_only
1104.0,GT4,Burlington (IA),OP,1994.0,2026.0,X,5.8,5.8,NG,,Natural Gas Fired Combustion Turbine,GT,Operable,40.7412,-91.116667,MRO,MISO,IA,Des Moines,ITC Midwest LLC,MISO-W,GAS (SINGLE FUEL),1,0,MISO-W,MISO-W,NG CT,GAS,0,Eastern,left_only
1121.0,2A,Alta Municipal Utilities,SB,2018.0,,Y,2.0,2.1,DFO,,Petroleum Liquids,IC,Operable,42.6736,-95.3026,MRO,SWPP,IA,Buena Vista,City of Alta - (IA),SPP-N,OIL,0,0,SPP-N,SPP-N,Oil IC,OIL,0,Eastern,left_only
1121.0,3A,Alta Municipal Utilities,SB,2018.0,,Y,2.0,2.1,DFO,,Petroleum Liquids,IC,Operable,42.6736,-95.3026,MRO,SWPP,IA,Buena Vista,City of Alta - (IA),SPP-N,OIL,0,0,SPP-N,SPP-N,Oil IC,OIL,0,Eastern,left_only
1125.0,5,Bancroft,SB,1954.0,,Y,0.5,0.5,DFO,,Petroleum Liquids,IC,Operable,43.292628,-94.217075,MRO,MISO,IA,Kossuth,Bancroft Municipal Utilities,MISO-W,OIL,0,0,MISO-W,MISO-W,Oil IC,OIL,0,Eastern,left_only
1126.0,1A,Bellevue,SB,2021.0,,Y,1.7,1.8,DFO,,Petroleum Liquids,IC,Operable,42.25,-90.4167,MRO,MISO,IA,Jackson,Central Iowa Power Cooperative,MISO-W,OIL,0,0,MISO-W,MISO-W,Oil IC,OIL,0,Eastern,left_only
1126.0,2,Bellevue,SB,1992.0,,Y,1.6,1.6,DFO,,Petroleum Liquids,IC,Operable,42.25,-90.4167,MRO,MISO,IA,Jackson,Central Iowa Power Cooperative,MISO-W,OIL,0,0,MISO-W,MISO-W,Oil IC,OIL,0,Eastern,left_only
1126.0,3,Bellevue,SB,2001.0,,Y,1.7,1.8,DFO,,Petroleum Liquids,IC,Operable,42.25,-90.4167,MRO,MISO,IA,Jackson,Central Iowa Power Cooperative,MISO-W,OIL,0,0,MISO-W,MISO-W,Oil IC,OIL,0,Eastern,left_only
1126.0,4,Bellevue,SB,1963.0,,Y,0.6,0.6,DFO,,Petroleum Liquids,IC,Operable,42.25,-90.4167,MRO,MISO,IA,Jackson,Central Iowa Power Cooperative,MISO-W,OIL,0,0,MISO-W,MISO-W,Oil IC,OIL,0,Eastern,left_only
1126.0,5,Bellevue,SB,1953.0,,Y,0.7,0.7,DFO,,Petroleum Liquids,IC,Operable,42.25,-90.4167,MRO,MISO,IA,Jackson,Central Iowa Power Cooperative,MISO-W,OIL,0,0,MISO-W,MISO-W,Oil IC,OIL,0,Eastern,left_only
1126.0,6,Bellevue,SB,1971.0,,Y,2.4,2.4,DFO,,Petroleum Liquids,IC,Operable,42.25,-90.4167,MRO,MISO,IA,Jackson,Central Iowa Power Cooperative,MISO-W,OIL,0,0,MISO-W,MISO-W,Oil IC,OIL,0,Eastern,left_only
1127.0,1,Bloomfield,SB,1975.0,,Y,2.3,2.3,NG,DFO,Natural Gas Internal Combustion Engine,IC,Operable,40.7031,-92.4253,MRO,AECI,IA,Davis,City of Bloomfield - (IA),SERC-C,GAS (SINGLE FUEL),0,0,SERC-C,SERC-C,NG IC,GAS,1,Eastern,left_only
1127.0,2,Bloomfield,SB,1945.0,,Y,0.2,0.2,DFO,,Petroleum Liquids,IC,Operable,40.7031,-92.4253,MRO,AECI,IA,Davis,City of Bloomfield - (IA),SERC-C,OIL,0,0,SERC-C,SERC-C,Oil IC,OIL,0,Eastern,left_only
1127.0,3,Bloomfield,SB,1964.0,,Y,2.2,2.2,NG,DFO,Natural Gas Internal Combustion Engine,IC,Operable,40.7031,-92.4253,MRO,AECI,IA,Davis,City of Bloomfield - (IA),SERC-C,GAS (SINGLE FUEL),0,0,SERC-C,SERC-C,NG IC,GAS,1,Eastern,left_only
1127.0,4,Bloomfield,SB,1946.0,,Y,0.2,0.2,DFO,,Petroleum Liquids,IC,Operable,40.7031,-92.4253,MRO,AECI,IA,Davis,City of Bloomfield - (IA),SERC-C,OIL,0,0,SERC-C,SERC-C,Oil IC,OIL,0,Eastern,left_only
1127.0,5,Bloomfield,SB,1951.0,,Y,0.8,0.8,NG,DFO,Natural Gas Internal Combustion Engine,IC,Operable,40.7031,-92.4253,MRO,AECI,IA,Davis,City of Bloomfield - (IA),SERC-C,GAS (SINGLE FUEL),0,0,SERC-C,SERC-C,NG IC,GAS,1,Eastern,left_only
1127.0,6,Bloomfield,SB,1958.0,,Y,1.2,1.2,NG,DFO,Natural Gas Internal Combustion Engine,IC,Operable,40.7031,-92.4253,MRO,AECI,IA,Davis,City of Bloomfield - (IA),SERC-C,GAS (SINGLE FUEL),0,0,SERC-C,SERC-C,NG IC,GAS,1,Eastern,left_only
1129.0,1,Cascade,SB,1957.0,,Y,0.7,0.7,DFO,,Petroleum Liquids,IC,Operable,42.29821,-91.011974,MRO,MISO,IA,Dubuque,ITC Midwest LLC,MISO-W,OIL,0,0,MISO-W,MISO-W,Oil IC,OIL,0,Eastern,left_only
1129.0,2,Cascade,SB,1971.0,,Y,1.9,2.0,DFO,NG,Petroleum Liquids,IC,Operable,42.29821,-91.011974,MRO,MISO,IA,Dubuque,ITC Midwest LLC,MISO-W,OIL,0,0,MISO-W,MISO-W,Oil IC,OIL,0,Eastern,left_only
1129.0,3A,Cascade,SB,1998.0,,Y,1.8,1.8,DFO,,Petroleum Liquids,IC,Operable,42.29821,-91.011974,MRO,MISO,IA,Dubuque,ITC Midwest LLC,MISO-W,OIL,0,0,MISO-W,MISO-W,Oil IC,OIL,0,Eastern,left_only
1129.0,4,Cascade,SB,1951.0,,Y,0.5,0.5,DFO,,Petroleum Liquids,IC,Operable,42.29821,-91.011974,MRO,MISO,IA,Dubuque,ITC Midwest LLC,MISO-W,OIL,0,0,MISO-W,MISO-W,Oil IC,OIL,0,Eastern,left_only
1129.0,6,Cascade,SB,2020.0,,Y,1.9,1.9,DFO,,Petroleum Liquids,IC,Operable,42.29821,-91.011974,MRO,MISO,IA,Dubuque,ITC Midwest LLC,MISO-W,OIL,0,0,MISO-W,MISO-W,Oil IC,OIL,0,Eastern,left_only
1134.0,5,Corning,SB,1975.0,,Y,2.8,2.8,DFO,,Petroleum Liquids,IC,Operable,40.9871,-94.7352,MRO,MISO,IA,Adams,City of Corning - (IA),MISO-W,OIL,0,0,MISO-W,MISO-W,Oil IC,OIL,0,Eastern,left_only
1134.0,6,Corning,SB,2006.0,,Y,2.0,2.0,DFO,,Petroleum Liquids,IC,Operable,40.9871,-94.7352,MRO,MISO,IA,Adams,City of Corning - (IA),MISO-W,OIL,0,0,MISO-W,MISO-W,Oil IC,OIL,0,Eastern,left_only
1134.0,7,Corning,SB,2006.0,,Y,2.0,2.0,DFO,,Petroleum Liquids,IC,Operable,40.9871,-94.7352,MRO,MISO,IA,Adams,City of Corning - (IA),MISO-W,OIL,0,0,MISO-W,MISO-W,Oil IC,OIL,0,Eastern,left_only
1142.0,4,Graettinger,OP,1957.0,2024.0,X,0.5,0.5,DFO,,Petroleum Liquids,IC,Operable,43.2397,-94.7498,MRO,MISO,IA,Palo Alto,Corn Belt Power Coop,MISO-W,OIL,1,0,MISO-W,MISO-W,Oil IC,OIL,0,Eastern,left_only
1146.0,HMU1,Harlan,SB,2001.0,,Y,1.6,1.6,DFO,,Petroleum Liquids,IC,Operable,41.644542,-95.315283,MRO,MISO,IA,Shelby,Harlan Municipal Utilities - (IA),MISO-W,OIL,0,0,MISO-W,MISO-W,Oil IC,OIL,0,Eastern,left_only
1146.0,HMU2,Harlan,SB,2001.0,,Y,1.6,1.6,DFO,,Petroleum Liquids,IC,Operable,41.644542,-95.315283,MRO,MISO,IA,Shelby,Harlan Municipal Utilities - (IA),MISO-W,OIL,0,0,MISO-W,MISO-W,Oil IC,OIL,0,Eastern,left_only
1156.0,3A,La Porte,SB,2000.0,,Y,1.8,1.8,DFO,,Petroleum Liquids,IC,Operable,42.3159,-92.1928,MRO,MISO,IA,Black Hawk,MidAmerican Energy Co,MISO-W,OIL,0,0,MISO-W,MISO-W,Oil IC,OIL,0,Eastern,left_only
1156.0,4A,La Porte,SB,2000.0,,Y,1.8,1.8,DFO,,Petroleum Liquids,IC,Operable,42.3159,-92.1928,MRO,MISO,IA,Black Hawk,MidAmerican Energy Co,MISO-W,OIL,0,0,MISO-W,MISO-W,Oil IC,OIL,0,Eastern,left_only
1156.0,6,La Porte,SB,2013.0,,Y,1.8,1.8,DFO,,Petroleum Liquids,IC,Operable,42.3159,-92.1928,MRO,MISO,IA,Black Hawk,MidAmerican Energy Co,MISO-W,OIL,0,0,MISO-W,MISO-W,Oil IC,OIL,0,Eastern,left_only
1157.0,3,Laurens,SB,1952.0,,Y,0.7,0.7,DFO,,Petroleum Liquids,IC,Operable,42.8486,-94.8506,MRO,SWPP,IA,Pocahontas,City of Laurens - (IA),SPP-N,OIL,0,0,SPP-N,SPP-N,Oil IC,OIL,0,Eastern,left_only
1157.0,4,Laurens,SB,1951.0,,Y,0.7,0.7,DFO,,Petroleum Liquids,IC,Operable,42.8486,-94.8506,MRO,SWPP,IA,Pocahontas,City of Laurens - (IA),SPP-N,OIL,0,0,SPP-N,SPP-N,Oil IC,OIL,0,Eastern,left_only
1157.0,5,Laurens,SB,2013.0,,Y,2.3,2.3,DFO,,Petroleum Liquids,IC,Operable,42.8486,-94.8506,MRO,SWPP,IA,Pocahontas,City of Laurens - (IA),SPP-N,OIL,0,0,SPP-N,SPP-N,Oil IC,OIL,0,Eastern,left_only
1157.0,6,Laurens,SB,2013.0,,Y,2.3,2.3,DFO,,Petroleum Liquids,IC,Operable,42.8486,-94.8506,MRO,SWPP,IA,Pocahontas,City of Laurens - (IA),SPP-N,OIL,0,0,SPP-N,SPP-N,Oil IC,OIL,0,Eastern,left_only
1157.0,7,Laurens,SB,2013.0,,Y,2.3,2.3,DFO,,Petroleum Liquids,IC,Operable,42.8486,-94.8506,MRO,SWPP,IA,Pocahontas,City of Laurens - (IA),SPP-N,OIL,0,0,SPP-N,SPP-N,Oil IC,OIL,0,Eastern,left_only
1158.0,1,Lenox,SB,1948.0,,Y,0.3,0.3,DFO,,Petroleum Liquids,IC,Operable,40.88,-94.5589,MRO,MISO,IA,Taylor,City of Lenox - (IA),MISO-W,OIL,0,0,MISO-W,MISO-W,Oil IC,OIL,0,Eastern,left_only
1158.0,2,Lenox,SB,1965.0,,Y,1.1,1.1,DFO,,Petroleum Liquids,IC,Operable,40.88,-94.5589,MRO,MISO,IA,Taylor,City of Lenox - (IA),MISO-W,OIL,0,0,MISO-W,MISO-W,Oil IC,OIL,0,Eastern,left_only
1158.0,3,Lenox,SB,1966.0,,Y,0.9,0.9,DFO,,Petroleum Liquids,IC,Operable,40.88,-94.5589,MRO,MISO,IA,Taylor,City of Lenox - (IA),MISO-W,OIL,0,0,MISO-W,MISO-W,Oil IC,OIL,0,Eastern,left_only
1158.0,4,Lenox,SB,2001.0,,Y,1.7,1.8,DFO,,Petroleum Liquids,IC,Operable,40.88,-94.5589,MRO,MISO,IA,Taylor,City of Lenox - (IA),MISO-W,OIL,0,0,MISO-W,MISO-W,Oil IC,OIL,0,Eastern,left_only
1158.0,5,Lenox,SB,2016.0,,Y,1.8,1.8,DFO,,Petroleum Liquids,IC,Operable,40.88,-94.5589,MRO,MISO,IA,Taylor,City of Lenox - (IA),MISO-W,OIL,0,0,MISO-W,MISO-W,Oil IC,OIL,0,Eastern,left_only
1160.0,1,Manning,SB,1928.0,,N,0.2,0.2,DFO,,Petroleum Liquids,IC,Operable,41.9067,-95.0347,MRO,SWPP,IA,Carroll,City of Manning,SPP-N,OIL,0,0,SPP-N,SPP-N,Oil IC,OIL,0,Eastern,left_only
1160.0,2,Manning,SB,1928.0,,N,0.2,0.2,DFO,,Petroleum Liquids,IC,Operable,41.9067,-95.0347,MRO,SWPP,IA,Carroll,City of Manning,SPP-N,OIL,0,0,SPP-N,SPP-N,Oil IC,OIL,0,Eastern,left_only
1160.0,4,Manning,SB,1949.0,,N,0.6,0.6,DFO,,Petroleum Liquids,IC,Operable,41.9067,-95.0347,MRO,SWPP,IA,Carroll,City of Manning,SPP-N,OIL,0,0,SPP-N,SPP-N,Oil IC,OIL,0,Eastern,left_only
1162.0,5,Maquoketa 1,SB,1956.0,,Y,1.4,1.5,NG,DFO,Natural Gas Internal Combustion Engine,IC,Operable,42.035556,-90.665,MRO,MISO,IA,Jackson,City of Maquoketa - (IA),MISO-W,GAS (DUAL FUEL),0,0,MISO-W,MISO-W,NG IC,GAS,1,Eastern,left_only
1165.0,1,Montezuma,SB,1940.0,,Y,0.2,0.2,DFO,,Petroleum Liquids,IC,Operable,41.586026,-92.5228,MRO,MISO,IA,Poweshiek,City of Montezuma - (IA),MISO-W,OIL,0,0,MISO-W,MISO-W,Oil IC,OIL,0,Eastern,left_only
1165.0,10,Montezuma,SB,2003.0,,Y,0.2,0.2,DFO,,Petroleum Liquids,IC,Operable,41.586026,-92.5228,MRO,MISO,IA,Poweshiek,City of Montezuma - (IA),MISO-W,OIL,0,0,MISO-W,MISO-W,Oil IC,OIL,0,Eastern,left_only
1165.0,4,Montezuma,SB,1947.0,,Y,0.5,0.5,DFO,,Petroleum Liquids,IC,Operable,41.586026,-92.5228,MRO,MISO,IA,Poweshiek,City of Montezuma - (IA),MISO-W,OIL,0,0,MISO-W,MISO-W,Oil IC,OIL,0,Eastern,left_only
1165.0,5,Montezuma,SB,1959.0,,Y,1.0,1.1,DFO,,Petroleum Liquids,IC,Operable,41.586026,-92.5228,MRO,MISO,IA,Poweshiek,City of Montezuma - (IA),MISO-W,OIL,0,0,MISO-W,MISO-W,Oil IC,OIL,0,Eastern,left_only
1165.0,6,Montezuma,SB,1967.0,,Y,1.6,1.7,NG,DFO,Natural Gas Internal Combustion Engine,IC,Operable,41.586026,-92.5228,MRO,MISO,IA,Poweshiek,City of Montezuma - (IA),MISO-W,GAS (DUAL FUEL),0,0,MISO-W,MISO-W,NG IC,GAS,1,Eastern,left_only
1165.0,7,Montezuma,SB,1974.0,,Y,2.5,2.5,NG,DFO,Natural Gas Internal Combustion Engine,IC,Operable,41.586026,-92.5228,MRO,MISO,IA,Poweshiek,City of Montezuma - (IA),MISO-W,GAS (DUAL FUEL),0,0,MISO-W,MISO-W,NG IC,GAS,1,Eastern,left_only
1165.0,8,Montezuma,SB,1998.0,,Y,1.8,1.8,DFO,,Petroleum Liquids,IC,Operable,41.586026,-92.5228,MRO,MISO,IA,Poweshiek,City of Montezuma - (IA),MISO-W,OIL,0,0,MISO-W,MISO-W,Oil IC,OIL,0,Eastern,left_only
1165.0,9,Montezuma,SB,2000.0,,Y,1.8,1.8,DFO,,Petroleum Liquids,IC,Operable,41.586026,-92.5228,MRO,MISO,IA,Poweshiek,City of Montezuma - (IA),MISO-W,OIL,0,0,MISO-W,MISO-W,Oil IC,OIL,0,Eastern,left_only
1166.0,1,Mt Pleasant,SB,2002.0,,Y,2.0,2.0,DFO,,Petroleum Liquids,IC,Operable,40.971826,-91.551221,MRO,AECI,IA,Henry,Northeast Missouri El Pwr Coop,SERC-C,OIL,0,0,SERC-C,SERC-C,Oil IC,OIL,0,Eastern,left_only
1166.0,10,Mt Pleasant,SB,2002.0,,Y,2.0,2.0,DFO,,Petroleum Liquids,IC,Operable,40.971826,-91.551221,MRO,AECI,IA,Henry,Northeast Missouri El Pwr Coop,SERC-C,OIL,0,0,SERC-C,SERC-C,Oil IC,OIL,0,Eastern,left_only
1166.0,11,Mt Pleasant,SB,2002.0,,Y,2.0,2.0,DFO,,Petroleum Liquids,IC,Operable,40.971826,-91.551221,MRO,AECI,IA,Henry,Northeast Missouri El Pwr Coop,SERC-C,OIL,0,0,SERC-C,SERC-C,Oil IC,OIL,0,Eastern,left_only
1166.0,12,Mt Pleasant,SB,2002.0,,Y,2.0,2.0,DFO,,Petroleum Liquids,IC,Operable,40.971826,-91.551221,MRO,AECI,IA,Henry,Northeast Missouri El Pwr Coop,SERC-C,OIL,0,0,SERC-C,SERC-C,Oil IC,OIL,0,Eastern,left_only
1166.0,2,Mt Pleasant,SB,2002.0,,Y,2.0,2.0,DFO,,Petroleum Liquids,IC,Operable,40.971826,-91.551221,MRO,AECI,IA,Henry,Northeast Missouri El Pwr Coop,SERC-C,OIL,0,0,SERC-C,SERC-C,Oil IC,OIL,0,Eastern,left_only
1166.0,3,Mt Pleasant,SB,2002.0,,Y,2.0,2.0,DFO,,Petroleum Liquids,IC,Operable,40.971826,-91.551221,MRO,AECI,IA,Henry,Northeast Missouri El Pwr Coop,SERC-C,OIL,0,0,SERC-C,SERC-C,Oil IC,OIL,0,Eastern,left_only
1166.0,4A,Mt Pleasant,SB,2002.0,,Y,2.0,2.0,DFO,,Petroleum Liquids,IC,Operable,40.971826,-91.551221,MRO,AECI,IA,Henry,Northeast Missouri El Pwr Coop,SERC-C,OIL,0,0,SERC-C,SERC-C,Oil IC,OIL,0,Eastern,left_only
1166.0,5A,Mt Pleasant,SB,2002.0,,Y,2.0,2.0,DFO,,Petroleum Liquids,IC,Operable,40.971826,-91.551221,MRO,AECI,IA,Henry,Northeast Missouri El Pwr Coop,SERC-C,OIL,0,0,SERC-C,SERC-C,Oil IC,OIL,0,Eastern,left_only
1166.0,6,Mt Pleasant,SB,2002.0,,Y,2.0,2.0,DFO,,Petroleum Liquids,IC,Operable,40.971826,-91.551221,MRO,AECI,IA,Henry,Northeast Missouri El Pwr Coop,SERC-C,OIL,0,0,SERC-C,SERC-C,Oil IC,OIL,0,Eastern,left_only
1166.0,7,Mt Pleasant,SB,2002.0,,Y,2.0,2.0,DFO,,Petroleum Liquids,IC,Operable,40.971826,-91.551221,MRO,AECI,IA,Henry,Northeast Missouri El Pwr Coop,SERC-C,OIL,0,0,SERC-C,SERC-C,Oil IC,OIL,0,Eastern,left_only
1166.0,8,Mt Pleasant,SB,2002.0,,Y,2.0,2.0,DFO,,Petroleum Liquids,IC,Operable,40.971826,-91.551221,MRO,AECI,IA,Henry,Northeast Missouri El Pwr Coop,SERC-C,OIL,0,0,SERC-C,SERC-C,Oil IC,OIL,0,Eastern,left_only
1166.0,9,Mt Pleasant,SB,2002.0,,Y,2.0,2.0,DFO,,Petroleum Liquids,IC,Operable,40.971826,-91.551221,MRO,AECI,IA,Henry,Northeast Missouri El Pwr Coop,SERC-C,OIL,0,0,SERC-C,SERC-C,Oil IC,OIL,0,Eastern,left_only
1167.0,8A,Muscatine Plant #1,OS,2000.0,2024.0,X,14.5,14.5,SUB,,Conventional Steam Coal,ST,Operable,41.3917,-91.0569,MRO,MISO,IA,Muscatine,Board of Water Electric & Communications,MISO-W,COAL,1,0,MISO-W,MISO-W,Coal ST,COAL,0,Eastern,left_only
1168.0,3,New Hampton,SB,1967.0,,Y,3.5,3.5,NG,DFO,Natural Gas Internal Combustion Engine,IC,Operable,43.0689,-92.3201,MRO,SWPP,IA,Chickasaw,Corn Belt Energy Corporation,SPP-N,GAS (DUAL FUEL),0,0,SPP-N,SPP-N,NG IC,GAS,1,Eastern,left_only
1168.0,4,New Hampton,SB,1973.0,,Y,5.0,5.0,NG,DFO,Natural Gas Internal Combustion Engine,IC,Operable,43.0689,-92.3201,MRO,SWPP,IA,Chickasaw,Corn Belt Energy Corporation,SPP-N,GAS (DUAL FUEL),0,0,SPP-N,SPP-N,NG IC,GAS,1,Eastern,left_only
1168.0,5,New Hampton,SB,1973.0,,Y,5.0,5.0,NG,DFO,Natural Gas Internal Combustion Engine,IC,Operable,43.0689,-92.3201,MRO,SWPP,IA,Chickasaw,Corn Belt Energy Corporation,SPP-N,GAS (DUAL FUEL),0,0,SPP-N,SPP-N,NG IC,GAS,1,Eastern,left_only
1169.0,4,Ogden,SB,1951.0,,Y,0.5,0.5,DFO,NG,Petroleum Liquids,IC,Operable,42.0372,-94.0462,MRO,MISO,IA,Boone,ITC Midwest LLC,MISO-W,OIL,0,0,MISO-W,MISO-W,Oil IC,OIL,0,Eastern,left_only
1169.0,5,Ogden,SB,1958.0,,Y,1.0,1.0,DFO,NG,Petroleum Liquids,IC,Operable,42.0372,-94.0462,MRO,MISO,IA,Boone,ITC Midwest LLC,MISO-W,OIL,0,0,MISO-W,MISO-W,Oil IC,OIL,0,Eastern,left_only
1169.0,6,Ogden,SB,1971.0,,Y,2.5,2.5,DFO,NG,Petroleum Liquids,IC,Operable,42.0372,-94.0462,MRO,MISO,IA,Boone,ITC Midwest LLC,MISO-W,OIL,0,0,MISO-W,MISO-W,Oil IC,OIL,0,Eastern,left_only
1172.0,5,Osage (IA),SB,1963.0,,Y,3.1,3.1,NG,DFO,Natural Gas Internal Combustion Engine,IC,Operable,43.279722,-92.810556,MRO,MISO,IA,Mitchell,City of Osage - (IA),MISO-W,GAS (SINGLE FUEL),0,0,MISO-W,MISO-W,NG IC,GAS,1,Eastern,left_only
1172.0,6,Osage (IA),SB,1973.0,,Y,6.0,6.0,NG,DFO,Natural Gas Internal Combustion Engine,IC,Operable,43.279722,-92.810556,MRO,MISO,IA,Mitchell,City of Osage - (IA),MISO-W,GAS (SINGLE FUEL),0,0,MISO-W,MISO-W,NG IC,GAS,1,Eastern,left_only
1172.0,7,Osage (IA),SB,1996.0,,Y,3.6,3.6,DFO,,Petroleum Liquids,IC,Operable,43.279722,-92.810556,MRO,MISO,IA,Mitchell,City of Osage - (IA),MISO-W,OIL,0,0,MISO-W,MISO-W,Oil IC,OIL,0,Eastern,left_only
1172.0,8,Osage (IA),SB,1998.0,,Y,3.6,3.6,DFO,,Petroleum Liquids,IC,Operable,43.279722,-92.810556,MRO,MISO,IA,Mitchell,City of Osage - (IA),MISO-W,OIL,0,0,MISO-W,MISO-W,Oil IC,OIL,0,Eastern,left_only
1173.0,1,Ottumwa City of,OS,1931.0,,X,1.0,1.0,WAT,,Conventional Hydroelectric,HY,Operable,41.016346,-92.414873,MRO,MISO,IA,Wapello,Interstate Power and Light Co,MISO-W,HYDRO,0,0,MISO-W,MISO-W,Hydro,HYDRO,0,Eastern,left_only
1180.0,1,Rockford,SB,1951.0,,Y,0.4,0.4,DFO,,Petroleum Liquids,IC,Operable,43.0489,-92.9468,MRO,MISO,IA,Floyd,City of Rockford- (IA),MISO-W,OIL,0,0,MISO-W,MISO-W,Oil IC,OIL,0,Eastern,left_only
1180.0,5,Rockford,SB,1961.0,,Y,0.9,0.9,DFO,,Petroleum Liquids,IC,Operable,43.0489,-92.9468,MRO,MISO,IA,Floyd,City of Rockford- (IA),MISO-W,OIL,0,0,MISO-W,MISO-W,Oil IC,OIL,0,Eastern,left_only
1180.0,6,Rockford,SB,1999.0,,Y,1.6,1.6,DFO,,Petroleum Liquids,IC,Operable,43.0489,-92.9468,MRO,MISO,IA,Floyd,City of Rockford- (IA),MISO-W,OIL,0,0,MISO-W,MISO-W,Oil IC,OIL,0,Eastern,left_only
1192.0,3,Traer Main,SB,1963.0,,Y,1.0,1.0,DFO,NG,Petroleum Liquids,IC,Operable,42.1926,-92.4636,MRO,MISO,IA,Tama,City of Traer - (IA),MISO-W,OIL,0,0,MISO-W,MISO-W,Oil IC,OIL,0,Eastern,left_only
1192.0,4,Traer Main,SB,1963.0,,Y,1.0,1.0,DFO,NG,Petroleum Liquids,IC,Operable,42.1926,-92.4636,MRO,MISO,IA,Tama,City of Traer - (IA),MISO-W,OIL,0,0,MISO-W,MISO-W,Oil IC,OIL,0,Eastern,left_only
1192.0,6,Traer Main,SB,1970.0,,Y,1.2,1.2,DFO,NG,Petroleum Liquids,IC,Operable,42.1926,-92.4636,MRO,MISO,IA,Tama,City of Traer - (IA),MISO-W,OIL,0,0,MISO-W,MISO-W,Oil IC,OIL,0,Eastern,left_only
1193.0,5,Villisca Municipal Power Plant,SB,2003.0,,Y,2.0,2.0,DFO,,Petroleum Liquids,IC,Operable,40.9315,-94.9855,MRO,MISO,IA,Montgomery,City of Villisca - (IA),MISO-W,OIL,0,0,MISO-W,MISO-W,Oil IC,OIL,0,Eastern,left_only
1193.0,6,Villisca Municipal Power Plant,SB,2003.0,,Y,2.0,2.0,DFO,,Petroleum Liquids,IC,Operable,40.9315,-94.9855,MRO,MISO,IA,Montgomery,City of Villisca - (IA),MISO-W,OIL,0,0,MISO-W,MISO-W,Oil IC,OIL,0,Eastern,left_only
1194.0,5,Vinton,OS,1946.0,,X,0.5,0.5,DFO,,Petroleum Liquids,IC,Operable,42.1697,-92.0222,MRO,MISO,IA,Benton,ITC Transmission,MISO-W,OIL,0,0,MISO-W,MISO-W,Oil IC,OIL,0,Eastern,left_only
1199.0,1,West Bend,SB,1959.0,,Y,1.0,1.0,DFO,,Petroleum Liquids,IC,Operable,42.961151,-94.445574,MRO,MISO,IA,Palo Alto,Corn Belt Power Coop,MISO-W,OIL,0,0,MISO-W,MISO-W,Oil IC,OIL,0,Eastern,left_only
1199.0,3,West Bend,SB,1954.0,,Y,0.9,0.9,DFO,,Petroleum Liquids,IC,Operable,42.961151,-94.445574,MRO,MISO,IA,Palo Alto,Corn Belt Power Coop,MISO-W,OIL,0,0,MISO-W,MISO-W,Oil IC,OIL,0,Eastern,left_only
1199.0,4,West Bend,SB,1973.0,,Y,2.0,2.0,DFO,,Petroleum Liquids,IC,Operable,42.961151,-94.445574,MRO,MISO,IA,Palo Alto,Corn Belt Power Coop,MISO-W,OIL,0,0,MISO-W,MISO-W,Oil IC,OIL,0,Eastern,left_only
1199.0,5,West Bend,SB,2013.0,,Y,2.5,2.5,DFO,,Petroleum Liquids,IC,Operable,42.961151,-94.445574,MRO,MISO,IA,Palo Alto,Corn Belt Power Coop,MISO-W,OIL,0,0,MISO-W,MISO-W,Oil IC,OIL,0,Eastern,left_only
1200.0,2,West Liberty,SB,1974.0,,Y,2.1,2.1,DFO,,Petroleum Liquids,IC,Operable,41.569128,-91.26405,MRO,MISO,IA,Muscatine,City of West Liberty - (IA),MISO-W,OIL,0,0,MISO-W,MISO-W,Oil IC,OIL,0,Eastern,left_only
1200.0,3,West Liberty,SB,1982.0,,Y,2.7,2.7,DFO,NG,Petroleum Liquids,IC,Operable,41.569128,-91.26405,MRO,MISO,IA,Muscatine,City of West Liberty - (IA),MISO-W,OIL,0,0,MISO-W,MISO-W,Oil IC,OIL,0,Eastern,left_only
1200.0,5,West Liberty,SB,2004.0,,Y,5.0,5.5,DFO,,Petroleum Liquids,GT,Operable,41.569128,-91.26405,MRO,MISO,IA,Muscatine,City of West Liberty - (IA),MISO-W,OIL,0,0,MISO-W,MISO-W,Oil CT,OIL,0,Eastern,left_only
1200.0,6,West Liberty,SB,2004.0,,Y,5.0,5.5,DFO,,Petroleum Liquids,GT,Operable,41.569128,-91.26405,MRO,MISO,IA,Muscatine,City of West Liberty - (IA),MISO-W,OIL,0,0,MISO-W,MISO-W,Oil CT,OIL,0,Eastern,left_only
1224.0,2,Bird City,OS,1966.0,,X,2.0,2.0,DFO,,Petroleum Liquids,IC,Operable,39.7581,-101.5319,MRO,SWPP,KS,Cheyenne,Midwest Energy Inc,SPP-S,OIL,0,0,SPP-S,SPP-S,Oil IC,OIL,0,Eastern,left_only
1230.0,2,Cimarron River,SB,1968.0,,Y,13.7,13.7,NG,,Natural Gas Fired Combustion Turbine,GT,Operable,37.1611,-100.7619,MRO,SWPP,KS,Seward,Sunflower Electric Power Corp,SPP-S,GAS (SINGLE FUEL),0,0,SPP-S,SPP-S,NG CT,GAS,0,Eastern,left_only
1239.0,11,Riverton,OS,1988.0,,X,14.0,16.0,NG,DFO,Natural Gas Fired Combustion Turbine,GT,Operable,37.072616,-94.698704,MRO,SWPP,KS,Cherokee,Empire District Electric Co,SPP-S,GAS (DUAL FUEL),0,0,SPP-S,SPP-S,NG CT,GAS,1,Eastern,left_only
1240.0,5,Gordon Evans Energy Center,SB,1969.0,,Y,3.0,3.0,DFO,,Petroleum Liquids,IC,Operable,37.7903,-97.521667,MRO,SWPP,KS,Sedgwick,Kansas Gas & Electric Co,SPP-S,OIL,0,0,SPP-S,SPP-S,Oil IC,OIL,0,Eastern,left_only
1248.0,H1DG,Hutchinson Energy Center,SB,1983.0,,Y,3.0,3.0,DFO,,Petroleum Liquids,IC,Operable,38.0906,-97.874722,MRO,SWPP,KS,Reno,Westar Energy Inc,SPP-S,OIL,0,0,SPP-S,SPP-S,Oil IC,OIL,0,Eastern,left_only
1259.0,1,Ashland,SB,1953.0,,Y,0.6,0.6,NG,DFO,Natural Gas Internal Combustion Engine,IC,Operable,37.193787,-99.763073,MRO,SWPP,KS,Clark,City of Ashland - (KS),SPP-S,GAS (DUAL FUEL),0,0,SPP-S,SPP-S,NG IC,GAS,1,Eastern,left_only
1259.0,2,Ashland,SB,1974.0,,Y,0.7,0.7,NG,DFO,Natural Gas Internal Combustion Engine,IC,Operable,37.193787,-99.763073,MRO,SWPP,KS,Clark,City of Ashland - (KS),SPP-S,GAS (DUAL FUEL),0,0,SPP-S,SPP-S,NG IC,GAS,1,Eastern,left_only
1259.0,3,Ashland,SB,1963.0,,Y,1.1,1.1,DFO,,Petroleum Liquids,IC,Operable,37.193787,-99.763073,MRO,SWPP,KS,Clark,City of Ashland - (KS),SPP-S,OIL,0,0,SPP-S,SPP-S,Oil IC,OIL,0,Eastern,left_only
1259.0,4B,Ashland,SB,2014.0,,Y,1.8,1.8,DFO,,Petroleum Liquids,IC,Operable,37.193787,-99.763073,MRO,SWPP,KS,Clark,City of Ashland - (KS),SPP-S,OIL,0,0,SPP-S,SPP-S,Oil IC,OIL,0,Eastern,left_only
1259.0,5,Ashland,SB,1971.0,,Y,0.7,0.7,DFO,,Petroleum Liquids,IC,Operable,37.193787,-99.763073,MRO,SWPP,KS,Clark,City of Ashland - (KS),SPP-S,OIL,0,0,SPP-S,SPP-S,Oil IC,OIL,0,Eastern,left_only
1261.0,1,Augusta Electric Plant No 1,SB,1954.0,,Y,1.1,1.1,NG,DFO,Natural Gas Internal Combustion Engine,IC,Operable,37.678454,-96.97193,MRO,SWPP,KS,Butler,City of Augusta - (KS),SPP-S,GAS (DUAL FUEL),0,0,SPP-S,SPP-S,NG IC,GAS,1,Eastern,left_only
1261.0,2,Augusta Electric Plant No 1,SB,1929.0,,Y,0.3,0.3,DFO,,Petroleum Liquids,IC,Operable,37.678454,-96.97193,MRO,SWPP,KS,Butler,City of Augusta - (KS),SPP-S,OIL,0,0,SPP-S,SPP-S,Oil IC,OIL,0,Eastern,left_only
1261.0,3,Augusta Electric Plant No 1,SB,1949.0,,Y,1.0,1.0,NG,DFO,Natural Gas Internal Combustion Engine,IC,Operable,37.678454,-96.97193,MRO,SWPP,KS,Butler,City of Augusta - (KS),SPP-S,GAS (DUAL FUEL),0,0,SPP-S,SPP-S,NG IC,GAS,1,Eastern,left_only
1261.0,4,Augusta Electric Plant No 1,SB,1939.0,,Y,0.7,0.7,DFO,,Petroleum Liquids,IC,Operable,37.678454,-96.97193,MRO,SWPP,KS,Butler,City of Augusta - (KS),SPP-S,OIL,0,0,SPP-S,SPP-S,Oil IC,OIL,0,Eastern,left_only
1261.0,5,Augusta Electric Plant No 1,SB,1956.0,,Y,2.2,2.2,NG,DFO,Natural Gas Internal Combustion Engine,IC,Operable,37.678454,-96.97193,MRO,SWPP,KS,Butler,City of Augusta - (KS),SPP-S,GAS (DUAL FUEL),0,0,SPP-S,SPP-S,NG IC,GAS,1,Eastern,left_only
1261.0,6,Augusta Electric Plant No 1,SB,1956.0,,Y,2.2,2.2,NG,DFO,Natural Gas Internal Combustion Engine,IC,Operable,37.678454,-96.97193,MRO,SWPP,KS,Butler,City of Augusta - (KS),SPP-S,GAS (DUAL FUEL),0,0,SPP-S,SPP-S,NG IC,GAS,1,Eastern,left_only
1261.0,7,Augusta Electric Plant No 1,SB,1964.0,,Y,2.0,2.0,NG,DFO,Natural Gas Internal Combustion Engine,IC,Operable,37.678454,-96.97193,MRO,SWPP,KS,Butler,City of Augusta - (KS),SPP-S,GAS (DUAL FUEL),0,0,SPP-S,SPP-S,NG IC,GAS,1,Eastern,left_only
1261.0,8,Augusta Electric Plant No 1,SB,2016.0,,Y,2.0,2.0,DFO,,Petroleum Liquids,IC,Operable,37.678454,-96.97193,MRO,SWPP,KS,Butler,City of Augusta - (KS),SPP-S,OIL,0,0,SPP-S,SPP-S,Oil IC,OIL,0,Eastern,left_only
1266.0,1A,Burlington (KS),SB,2003.0,,Y,2.0,2.0,DFO,,Petroleum Liquids,IC,Operable,38.193441,-95.749953,MRO,SWPP,KS,Coffey,Westar Energy Inc,SPP-S,OIL,0,0,SPP-S,SPP-S,Oil IC,OIL,0,Eastern,left_only
1266.0,2,Burlington (KS),SB,1962.0,,Y,1.3,1.3,DFO,NG,Petroleum Liquids,IC,Operable,38.193441,-95.749953,MRO,SWPP,KS,Coffey,Westar Energy Inc,SPP-S,OIL,0,0,SPP-S,SPP-S,Oil IC,OIL,0,Eastern,left_only
1266.0,4A,Burlington (KS),SB,2005.0,,Y,2.3,2.3,DFO,NG,Petroleum Liquids,IC,Operable,38.193441,-95.749953,MRO,SWPP,KS,Coffey,Westar Energy Inc,SPP-S,OIL,0,0,SPP-S,SPP-S,Oil IC,OIL,0,Eastern,left_only
1266.0,IC6,Burlington (KS),SB,1983.0,,Y,4.8,4.8,NG,DFO,Natural Gas Internal Combustion Engine,IC,Operable,38.193441,-95.749953,MRO,SWPP,KS,Coffey,Westar Energy Inc,SPP-S,GAS (DUAL FUEL),0,0,SPP-S,SPP-S,NG IC,GAS,1,Eastern,left_only
1272.0,5,Colby City of,OS,1958.0,,X,1.0,1.0,DFO,NG,Petroleum Liquids,IC,Operable,39.394414,-101.058372,MRO,SWPP,KS,Thomas,Midwest Energy Inc,SPP-S,OIL,0,0,SPP-S,SPP-S,Oil IC,OIL,0,Eastern,left_only
1274.0,3,Ellinwood,SB,1948.0,,Y,0.4,0.4,DFO,NG,Petroleum Liquids,IC,Operable,38.354514,-98.583436,MRO,SWPP,KS,Barton,Midwest Energy Inc,SPP-S,OIL,0,0,SPP-S,SPP-S,Oil IC,OIL,0,Eastern,left_only
1283.0,4B,Herington,SB,2001.0,,Y,1.5,1.5,DFO,,Petroleum Liquids,IC,Operable,38.6658,-96.9492,MRO,SWPP,KS,Dickinson,Westar Energy Inc,SPP-S,OIL,0,0,SPP-S,SPP-S,Oil IC,OIL,0,Eastern,left_only
1292.0,8,Jetmore,SB,2015.0,,Y,2.5,2.5,DFO,,Petroleum Liquids,IC,Operable,38.080332,-99.893587,MRO,SWPP,KS,Hodgeman,Midwest Energy Inc,SPP-S,OIL,0,0,SPP-S,SPP-S,Oil IC,OIL,0,Eastern,left_only
1294.0,1,Kaw,OS,1955.0,,X,41.9,41.9,NG,,Natural Gas Steam Turbine,ST,Operable,39.0867,-94.651389,MRO,SWPP,KS,Wyandotte,City of Kansas City - (KS),SPP-S,GAS (SINGLE FUEL),0,0,SPP-S,SPP-S,NG ST,GAS,0,Eastern,left_only
1294.0,2,Kaw,OS,1957.0,,X,41.9,41.9,NG,,Natural Gas Steam Turbine,ST,Operable,39.0867,-94.651389,MRO,SWPP,KS,Wyandotte,City of Kansas City - (KS),SPP-S,GAS (SINGLE FUEL),0,0,SPP-S,SPP-S,NG ST,GAS,0,Eastern,left_only
1294.0,3,Kaw,OS,1962.0,,X,56.5,56.5,NG,,Natural Gas Steam Turbine,ST,Operable,39.0867,-94.651389,MRO,SWPP,KS,Wyandotte,City of Kansas City - (KS),SPP-S,GAS (SINGLE FUEL),0,0,SPP-S,SPP-S,NG ST,GAS,0,Eastern,left_only
1295.0,ST1,Quindaro,OS,1965.0,,X,72.0,72.0,NG,,Natural Gas Steam Turbine,ST,Operable,39.1492,-94.6381,MRO,SWPP,KS,Wyandotte,City of Kansas City - (KS),SPP-S,GAS (SINGLE FUEL),0,0,SPP-S,SPP-S,NG ST,GAS,0,Eastern,left_only
1295.0,ST2,Quindaro,OS,1971.0,,X,85.0,85.0,NG,,Natural Gas Steam Turbine,ST,Operable,39.1492,-94.6381,MRO,SWPP,KS,Wyandotte,City of Kansas City - (KS),SPP-S,GAS (SINGLE FUEL),0,0,SPP-S,SPP-S,NG ST,GAS,0,Eastern,left_only
1296.0,2,Kingman Municipal Power and Light Plant,SB,1962.0,,Y,1.9,2.0,NG,DFO,Natural Gas Internal Combustion Engine,IC,Operable,37.38311,-98.070364,MRO,SWPP,KS,Kingman,City of Kingman - (KS),SPP-S,GAS (DUAL FUEL),0,0,SPP-S,SPP-S,NG IC,GAS,1,Eastern,left_only
1299.0,CAT,Larned,OS,2004.0,,X,2.0,2.0,DFO,,Petroleum Liquids,IC,Operable,38.176167,-99.099984,MRO,SWPP,KS,Pawnee,City of Larned - (KS),SPP-S,OIL,0,0,SPP-S,SPP-S,Oil IC,OIL,0,Eastern,left_only
1300.0,1,Lincoln,SB,1964.0,,Y,1.1,1.1,DFO,NG,Petroleum Liquids,IC,Operable,39.03719,-98.152993,MRO,SWPP,KS,Lincoln,City of Lincoln Center - (KS),SPP-S,OIL,0,0,SPP-S,SPP-S,Oil IC,OIL,0,Eastern,left_only
1300.0,2,Lincoln,SB,1964.0,,Y,1.1,1.1,DFO,NG,Petroleum Liquids,IC,Operable,39.03719,-98.152993,MRO,SWPP,KS,Lincoln,City of Lincoln Center - (KS),SPP-S,OIL,0,0,SPP-S,SPP-S,Oil IC,OIL,0,Eastern,left_only
1300.0,4,Lincoln,SB,1958.0,,Y,0.6,0.6,DFO,,Petroleum Liquids,IC,Operable,39.03719,-98.152993,MRO,SWPP,KS,Lincoln,City of Lincoln Center - (KS),SPP-S,OIL,0,0,SPP-S,SPP-S,Oil IC,OIL,0,Eastern,left_only
1300.0,7,Lincoln,SB,1974.0,,Y,3.0,3.0,DFO,NG,Petroleum Liquids,IC,Operable,39.03719,-98.152993,MRO,SWPP,KS,Lincoln,City of Lincoln Center - (KS),SPP-S,OIL,0,0,SPP-S,SPP-S,Oil IC,OIL,0,Eastern,left_only
1300.0,8,Lincoln,SB,2017.0,,Y,1.8,1.8,DFO,,Petroleum Liquids,IC,Operable,39.03719,-98.152993,MRO,SWPP,KS,Lincoln,City of Lincoln Center - (KS),SPP-S,OIL,0,0,SPP-S,SPP-S,Oil IC,OIL,0,Eastern,left_only
1312.0,1,Oberlin (KS),SB,1956.0,2024.0,Y,0.9,0.9,DFO,NG,Petroleum Liquids,IC,Operable,39.8217,-100.5289,MRO,SWPP,KS,Decatur,City of Oberlin - (KS),SPP-S,OIL,1,0,SPP-S,SPP-S,Oil IC,OIL,0,Eastern,left_only
1312.0,2,Oberlin (KS),SB,1954.0,2024.0,Y,0.6,0.6,DFO,NG,Petroleum Liquids,IC,Operable,39.8217,-100.5289,MRO,SWPP,KS,Decatur,City of Oberlin - (KS),SPP-S,OIL,1,0,SPP-S,SPP-S,Oil IC,OIL,0,Eastern,left_only
1312.0,4,Oberlin (KS),SB,1967.0,2024.0,Y,1.2,1.2,DFO,NG,Petroleum Liquids,IC,Operable,39.8217,-100.5289,MRO,SWPP,KS,Decatur,City of Oberlin - (KS),SPP-S,OIL,1,0,SPP-S,SPP-S,Oil IC,OIL,0,Eastern,left_only
1312.0,5,Oberlin (KS),SB,1973.0,2024.0,Y,1.3,1.3,DFO,NG,Petroleum Liquids,IC,Operable,39.8217,-100.5289,MRO,SWPP,KS,Decatur,City of Oberlin - (KS),SPP-S,OIL,1,0,SPP-S,SPP-S,Oil IC,OIL,0,Eastern,left_only
1312.0,6,Oberlin (KS),SB,1963.0,2024.0,Y,1.2,1.2,DFO,NG,Petroleum Liquids,IC,Operable,39.8217,-100.5289,MRO,SWPP,KS,Decatur,City of Oberlin - (KS),SPP-S,OIL,1,0,SPP-S,SPP-S,Oil IC,OIL,0,Eastern,left_only
1314.0,2,Osawatomie City of,SB,1957.0,,Y,1.8,1.8,DFO,NG,Petroleum Liquids,IC,Operable,38.501719,-94.960069,MRO,SWPP,KS,Miami,City of Osawatomie - (KS),SPP-S,OIL,0,0,SPP-S,SPP-S,Oil IC,OIL,0,Eastern,left_only
1314.0,4,Osawatomie City of,SB,1950.0,,Y,1.0,1.0,DFO,NG,Petroleum Liquids,IC,Operable,38.501719,-94.960069,MRO,SWPP,KS,Miami,City of Osawatomie - (KS),SPP-S,OIL,0,0,SPP-S,SPP-S,Oil IC,OIL,0,Eastern,left_only
1314.0,5,Osawatomie City of,SB,1966.0,,Y,2.8,2.8,DFO,NG,Petroleum Liquids,IC,Operable,38.501719,-94.960069,MRO,SWPP,KS,Miami,City of Osawatomie - (KS),SPP-S,OIL,0,0,SPP-S,SPP-S,Oil IC,OIL,0,Eastern,left_only
1315.0,1,Osborne,SB,1967.0,,Y,1.4,1.6,DFO,NG,Petroleum Liquids,IC,Operable,39.441979,-98.690296,MRO,SWPP,KS,Osborne,Prairie Land Electric Coop Inc,SPP-S,OIL,0,0,SPP-S,SPP-S,Oil IC,OIL,0,Eastern,left_only
1315.0,2,Osborne,SB,1963.0,,Y,1.2,1.4,DFO,NG,Petroleum Liquids,IC,Operable,39.441979,-98.690296,MRO,SWPP,KS,Osborne,Prairie Land Electric Coop Inc,SPP-S,OIL,0,0,SPP-S,SPP-S,Oil IC,OIL,0,Eastern,left_only
1315.0,3,Osborne,SB,1957.0,,Y,0.6,0.7,DFO,NG,Petroleum Liquids,IC,Operable,39.441979,-98.690296,MRO,SWPP,KS,Osborne,Prairie Land Electric Coop Inc,SPP-S,OIL,0,0,SPP-S,SPP-S,Oil IC,OIL,0,Eastern,left_only
1315.0,6,Osborne,SB,1992.0,,Y,0.4,0.4,NG,,Natural Gas Internal Combustion Engine,IC,Operable,39.441979,-98.690296,MRO,SWPP,KS,Osborne,Prairie Land Electric Coop Inc,SPP-S,GAS (SINGLE FUEL),0,0,SPP-S,SPP-S,NG IC,GAS,0,Eastern,left_only
1315.0,7,Osborne,SB,1992.0,,Y,0.4,0.4,NG,,Natural Gas Internal Combustion Engine,IC,Operable,39.441979,-98.690296,MRO,SWPP,KS,Osborne,Prairie Land Electric Coop Inc,SPP-S,GAS (SINGLE FUEL),0,0,SPP-S,SPP-S,NG IC,GAS,0,Eastern,left_only
1315.0,8,Osborne,SB,1994.0,,Y,0.6,0.6,NG,,Natural Gas Internal Combustion Engine,IC,Operable,39.441979,-98.690296,MRO,SWPP,KS,Osborne,Prairie Land Electric Coop Inc,SPP-S,GAS (SINGLE FUEL),0,0,SPP-S,SPP-S,NG IC,GAS,0,Eastern,left_only
1336.0,S3,Garden City,SB,1968.0,,Y,12.8,12.8,NG,,Natural Gas Fired Combustion Turbine,GT,Operable,37.9703,-100.8956,MRO,SWPP,KS,Finney,Sunflower Electric Power Corp,SPP-S,GAS (SINGLE FUEL),0,0,SPP-S,SPP-S,NG CT,GAS,0,Eastern,left_only
1364.0,1,Mill Creek (KY),OP,1972.0,2024.0,X,300.0,300.0,BIT,,Conventional Steam Coal,ST,Operable,38.0525,-85.9103,SERC,LGEE,KY,Jefferson,Louisville Gas & Electric Co,SERC-C,COAL,1,0,SERC-C,SERC-C,Coal ST,COAL,0,Eastern,left_only
1364.0,2,Mill Creek (KY),OP,1974.0,2027.0,X,297.0,297.0,BIT,,Conventional Steam Coal,ST,Operable,38.0525,-85.9103,SERC,LGEE,KY,Jefferson,Louisville Gas & Electric Co,SERC-C,COAL,1,0,SERC-C,SERC-C,Coal ST,COAL,0,Eastern,left_only
1392.0,10,Louisiana 2,SB,1950.0,,Y,40.0,40.0,NG,,Natural Gas Steam Turbine,ST,Operable,30.4922,-91.1864,SERC,MISO,LA,East Baton Rouge,Entergy Louisiana LLC,MISO-S,GAS (SINGLE FUEL),0,0,MISO-S,MISO-S,NG ST,GAS,0,Eastern,left_only
1392.0,11,Louisiana 2,SB,1950.0,,Y,40.0,40.0,NG,,Natural Gas Steam Turbine,ST,Operable,30.4922,-91.1864,SERC,MISO,LA,East Baton Rouge,Entergy Louisiana LLC,MISO-S,GAS (SINGLE FUEL),0,0,MISO-S,MISO-S,NG ST,GAS,0,Eastern,left_only
1392.0,12,Louisiana 2,SB,1953.0,,Y,58.0,58.0,NG,,Natural Gas Steam Turbine,ST,Operable,30.4922,-91.1864,SERC,MISO,LA,East Baton Rouge,Entergy Louisiana LLC,MISO-S,GAS (SINGLE FUEL),0,0,MISO-S,MISO-S,NG ST,GAS,0,Eastern,left_only
1400.0,3,Teche,OP,1971.0,2024.0,X,250.0,250.0,NG,,Natural Gas Steam Turbine,ST,Operable,29.822222,-91.5425,SERC,MISO,LA,St Mary,Cleco Power LLC,MISO-S,GAS (SINGLE FUEL),1,0,MISO-S,MISO-S,NG ST,GAS,0,Eastern,left_only
1402.0,2,Little Gypsy,OP,1966.0,2026.0,X,412.0,420.1,NG,DFO,Natural Gas Steam Turbine,ST,Operable,30.005067,-90.461694,SERC,MISO,LA,St Charles,Entergy Louisiana LLC,MISO-S,GAS (DUAL FUEL),1,0,MISO-S,MISO-S,NG ST,GAS,1,Eastern,left_only
1416.0,5,Arsenal Hill,OP,1960.0,2025.0,X,110.0,110.0,NG,,Natural Gas Steam Turbine,ST,Operable,32.5181,-93.7611,MRO,SWPP,LA,Caddo,Southwestern Electric Power Co,SPP-S,GAS (SINGLE FUEL),1,0,SPP-S,SPP-S,NG ST,GAS,0,Eastern,left_only
1439.0,14,Houma,OS,1967.0,,X,10.0,10.0,NG,,Natural Gas Steam Turbine,ST,Operable,29.5806,-90.7225,SERC,MISO,LA,Terrebonne,Entergy Louisiana LLC,MISO-S,GAS (SINGLE FUEL),0,0,MISO-S,MISO-S,NG ST,GAS,0,Eastern,left_only
1439.0,15,Houma,OS,1972.0,,X,23.5,23.5,NG,,Natural Gas Steam Turbine,ST,Operable,29.5806,-90.7225,SERC,MISO,LA,Terrebonne,Entergy Louisiana LLC,MISO-S,GAS (SINGLE FUEL),0,0,MISO-S,MISO-S,NG ST,GAS,0,Eastern,left_only
1439.0,16,Houma,OS,1977.0,,X,34.0,34.0,NG,,Natural Gas Steam Turbine,ST,Operable,29.5806,-90.7225,SERC,MISO,LA,Terrebonne,Entergy Louisiana LLC,MISO-S,GAS (SINGLE FUEL),0,0,MISO-S,MISO-S,NG ST,GAS,0,Eastern,left_only
1456.0,8,Rayne,OS,1969.0,,X,3.4,3.4,DFO,,Petroleum Liquids,IC,Operable,30.234627,-92.272174,SERC,MISO,LA,Acadia,City of Rayne - (LA),MISO-S,OIL,0,0,MISO-S,MISO-S,Oil IC,OIL,0,Eastern,left_only
1456.0,9,Rayne,OS,1969.0,,X,3.6,3.6,DFO,,Petroleum Liquids,IC,Operable,30.234627,-92.272174,SERC,MISO,LA,Acadia,City of Rayne - (LA),MISO-S,OIL,0,0,MISO-S,MISO-S,Oil IC,OIL,0,Eastern,left_only
1516.0,SP1,Squa Pan Hydro Station,SB,1941.0,,Y,1.4,1.4,WAT,,Conventional Hydroelectric,HY,Operable,46.556477,-68.325538,NPCC,NBSO,ME,Aroostook,Emera Maine,ISONE,HYDRO,0,0,ISONE,ISONE,Hydro,HYDRO,0,Eastern,left_only
1554.0,1,Herbert A Wagner,OP,1956.0,2025.0,X,126.0,126.0,DFO,,Petroleum Liquids,ST,Operable,39.1781,-76.5268,RFC,PJM,MD,Anne Arundel,Baltimore Gas & Electric Co,PJM-S,OIL,1,0,PJM-S,PJM-S,Oil ST,OIL,0,Eastern,left_only
1554.0,3,Herbert A Wagner,OP,1966.0,2025.0,X,305.0,305.0,DFO,,Petroleum Liquids,ST,Operable,39.1781,-76.5268,RFC,PJM,MD,Anne Arundel,Baltimore Gas & Electric Co,PJM-S,COAL,1,0,PJM-S,PJM-S,Oil ST,OIL,0,Eastern,left_only
1554.0,4,Herbert A Wagner,OP,1972.0,2025.0,X,397.0,397.0,DFO,,Petroleum Liquids,ST,Operable,39.1781,-76.5268,RFC,PJM,MD,Anne Arundel,Baltimore Gas & Electric Co,PJM-S,OIL,1,0,PJM-S,PJM-S,Oil ST,OIL,0,Eastern,left_only
1563.0,CRIS,Crisfield,SB,1968.0,,Y,2.6,2.6,DFO,,Petroleum Liquids,IC,Operable,37.994134,-75.837679,RFC,PJM,MD,Somerset,Delmarva Power,PJM-S,OIL,0,0,PJM-S,PJM-S,Oil IC,OIL,0,Eastern,left_only
1563.0,CRS2,Crisfield,SB,1968.0,,Y,2.6,2.6,DFO,,Petroleum Liquids,IC,Operable,37.994134,-75.837679,RFC,PJM,MD,Somerset,Delmarva Power,PJM-S,OIL,0,0,PJM-S,PJM-S,Oil IC,OIL,0,Eastern,left_only
1563.0,CRS3,Crisfield,SB,1968.0,,Y,2.6,2.6,DFO,,Petroleum Liquids,IC,Operable,37.994134,-75.837679,RFC,PJM,MD,Somerset,Delmarva Power,PJM-S,OIL,0,0,PJM-S,PJM-S,Oil IC,OIL,0,Eastern,left_only
1563.0,CRS4,Crisfield,SB,1968.0,,Y,2.6,2.6,DFO,,Petroleum Liquids,IC,Operable,37.994134,-75.837679,RFC,PJM,MD,Somerset,Delmarva Power,PJM-S,OIL,0,0,PJM-S,PJM-S,Oil IC,OIL,0,Eastern,left_only
1564.0,10,Vienna Operations,OP,1968.0,2025.0,X,14.3,14.3,DFO,,Petroleum Liquids,GT,Operable,38.4878,-75.8208,RFC,PJM,MD,Dorchester,Delmarva Power,PJM-S,OIL,1,0,PJM-S,PJM-S,Oil CT,OIL,0,Eastern,left_only
1564.0,8,Vienna Operations,OP,1972.0,2025.0,X,153.0,153.0,RFO,DFO,Petroleum Liquids,ST,Operable,38.4878,-75.8208,RFC,PJM,MD,Dorchester,Delmarva Power,PJM-S,OIL,1,0,PJM-S,PJM-S,Oil ST,OIL,0,Eastern,left_only
1573.0,5,Morgantown Generating Plant,OP,1973.0,2024.0,X,54.0,59.0,DFO,,Petroleum Liquids,GT,Operable,38.3592,-76.9767,RFC,PJM,MD,Charles,Potomac Electric Power Co,PJM-S,OIL,1,0,PJM-S,PJM-S,Oil CT,OIL,0,Eastern,left_only
1573.0,6,Morgantown Generating Plant,OP,1973.0,2024.0,X,54.0,59.0,DFO,,Petroleum Liquids,GT,Operable,38.3592,-76.9767,RFC,PJM,MD,Charles,Potomac Electric Power Co,PJM-S,OIL,1,0,PJM-S,PJM-S,Oil CT,OIL,0,Eastern,left_only
1588.0,GT81,Mystic Generating Station,OP,2003.0,2024.0,X,228.8,268.1,NG,,Natural Gas Fired Combined Cycle,CT,Operable,42.3908,-71.0675,NPCC,ISNE,MA,Middlesex,NSTAR Electric Company,ISONE,GAS (SINGLE FUEL),1,0,ISONE,ISONE,NG CC,GAS,0,Eastern,left_only
1588.0,GT82,Mystic Generating Station,OP,2003.0,2024.0,X,230.0,270.6,NG,,Natural Gas Fired Combined Cycle,CT,Operable,42.3908,-71.0675,NPCC,ISNE,MA,Middlesex,NSTAR Electric Company,ISONE,GAS (SINGLE FUEL),1,0,ISONE,ISONE,NG CC,GAS,0,Eastern,left_only
1588.0,GT93,Mystic Generating Station,OP,2003.0,2024.0,X,231.1,278.7,NG,,Natural Gas Fired Combined Cycle,CT,Operable,42.3908,-71.0675,NPCC,ISNE,MA,Middlesex,NSTAR Electric Company,ISONE,GAS (SINGLE FUEL),1,0,ISONE,ISONE,NG CC,GAS,0,Eastern,left_only
1588.0,GT94,Mystic Generating Station,OP,2003.0,2024.0,X,232.2,280.3,NG,,Natural Gas Fired Combined Cycle,CT,Operable,42.3908,-71.0675,NPCC,ISNE,MA,Middlesex,NSTAR Electric Company,ISONE,GAS (SINGLE FUEL),1,0,ISONE,ISONE,NG CC,GAS,0,Eastern,left_only
1588.0,ST85,Mystic Generating Station,OP,2003.0,2024.0,X,244.6,300.8,NG,,Natural Gas Fired Combined Cycle,CA,Operable,42.3908,-71.0675,NPCC,ISNE,MA,Middlesex,NSTAR Electric Company,ISONE,GAS (SINGLE FUEL),1,0,ISONE,ISONE,NG CC,GAS,0,Eastern,left_only
1588.0,ST96,Mystic Generating Station,OP,2003.0,2024.0,X,246.7,288.0,NG,,Natural Gas Fired Combined Cycle,CA,Operable,42.3908,-71.0675,NPCC,ISNE,MA,Middlesex,NSTAR Electric Company,ISONE,GAS (SINGLE FUEL),1,0,ISONE,ISONE,NG CC,GAS,0,Eastern,left_only
1638.0,RB3,Redbridge,OS,1934.0,,X,1.8,1.8,WAT,,Conventional Hydroelectric,HY,Operable,42.176047,-72.409521,NPCC,ISNE,MA,Hampden,Western Massachusetts Electric Company,ISONE,HYDRO,0,0,ISONE,ISONE,Hydro,HYDRO,0,Eastern,left_only
1638.0,RB4,Redbridge,OS,1926.0,,X,1.8,1.8,WAT,,Conventional Hydroelectric,HY,Operable,42.176047,-72.409521,NPCC,ISNE,MA,Hampden,Western Massachusetts Electric Company,ISONE,HYDRO,0,0,ISONE,ISONE,Hydro,HYDRO,0,Eastern,left_only
1660.0,CC2,Potter Station 2,OS,1977.0,2024.0,X,62.6,77.6,NG,DFO,Natural Gas Fired Combined Cycle,CT,Operable,42.235,-70.9672,NPCC,ISNE,MA,Norfolk,Town of Braintree - (MA),ISONE,GAS (DUAL FUEL),1,0,ISONE,ISONE,NG CC,GAS,1,Eastern,left_only
1660.0,CC3,Potter Station 2,OS,1977.0,2024.0,X,15.5,18.5,NG,DFO,Natural Gas Fired Combined Cycle,CA,Operable,42.235,-70.9672,NPCC,ISNE,MA,Norfolk,Town of Braintree - (MA),ISONE,GAS (DUAL FUEL),1,0,ISONE,ISONE,NG CC,GAS,1,Eastern,left_only
1670.0,8,High Street Station,SB,1960.0,,Y,1.1,1.1,DFO,,Petroleum Liquids,IC,Operable,42.6986,-70.8697,NPCC,ISNE,MA,Essex,Town of Ipswich - (MA),ISONE,OIL,0,0,ISONE,ISONE,Oil IC,OIL,0,Eastern,left_only
1678.0,1,Waters River,OP,1971.0,2026.0,X,16.0,22.0,NG,DFO,Natural Gas Fired Combustion Turbine,GT,Operable,42.542949,-70.928314,NPCC,ISNE,MA,Essex,City of Peabody - (MA),ISONE,GAS (DUAL FUEL),1,0,ISONE,ISONE,NG CT,GAS,1,Eastern,left_only
1710.0,1,J H Campbell,OP,1962.0,2025.0,X,260.0,260.0,SUB,,Conventional Steam Coal,ST,Operable,42.910296,-86.20074,RFC,MISO,MI,Ottawa,ITC Transmission,MISO-E,COAL,1,0,MISO-E,MISO-E,Coal ST,COAL,0,Eastern,left_only
1710.0,2,J H Campbell,OP,1967.0,2025.0,X,355.5,365.9,SUB,DFO,Conventional Steam Coal,ST,Operable,42.910296,-86.20074,RFC,MISO,MI,Ottawa,ITC Transmission,MISO-E,COAL,1,0,MISO-E,MISO-E,Coal ST,COAL,0,Eastern,left_only
1710.0,3,J H Campbell,OP,1980.0,2025.0,X,784.6,784.7,SUB,,Conventional Steam Coal,ST,Operable,42.910296,-86.20074,RFC,MISO,MI,Ottawa,ITC Transmission,MISO-E,COAL,1,0,MISO-E,MISO-E,Coal ST,COAL,0,Eastern,left_only
1733.0,3,Monroe (MI),OP,1973.0,2028.0,X,773.0,783.0,SUB,RC,Conventional Steam Coal,ST,Operable,41.8906,-83.3464,RFC,MISO,MI,Monroe,ITC Transmission,MISO-E,COAL,1,0,MISO-E,MISO-E,Coal ST,COAL,0,Eastern,left_only
1733.0,4,Monroe (MI),OP,1974.0,2028.0,X,762.0,762.0,SUB,BIT,Conventional Steam Coal,ST,Operable,41.8906,-83.3464,RFC,MISO,MI,Monroe,ITC Transmission,MISO-E,COAL,1,0,MISO-E,MISO-E,Coal ST,COAL,0,Eastern,left_only
1775.0,3,Brule,OS,1921.0,,X,2.0,2.0,WAT,,Conventional Hydroelectric,HY,Operable,45.9472,-88.2189,RFC,MISO,WI,Florence,American Transmission Co,MISO-W,HYDRO,0,0,MISO-W,MISO-W,Hydro,HYDRO,0,Eastern,left_only
1787.0,3,Grand Rapids,OS,1945.0,,X,1.5,1.5,WAT,,Conventional Hydroelectric,HY,Operable,45.3547,-87.6494,RFC,MISO,MI,Menominee,Wisconsin Public Service Corp,MISO-E,HYDRO,0,0,MISO-E,MISO-E,Hydro,HYDRO,0,Eastern,left_only
1840.0,CT1,Plant Four,SB,1979.0,,Y,20.0,22.0,DFO,,Petroleum Liquids,GT,Operable,46.575965,-87.403579,RFC,MISO,MI,Marquette,City of Marquette - (MI),MISO-E,OIL,0,0,MISO-E,MISO-E,Oil CT,OIL,0,Eastern,left_only
1851.0,4,Frank Jenkins,SB,1950.0,,Y,0.8,0.8,DFO,,Petroleum Liquids,IC,Operable,42.868611,-84.895555,RFC,MISO,MI,Ionia,City of Portland - (MI),MISO-E,OIL,0,0,MISO-E,MISO-E,Oil IC,OIL,0,Eastern,left_only
1851.0,5,Frank Jenkins,SB,1995.0,,Y,1.7,1.7,DFO,NG,Petroleum Liquids,IC,Operable,42.868611,-84.895555,RFC,MISO,MI,Ionia,City of Portland - (MI),MISO-E,OIL,0,0,MISO-E,MISO-E,Oil IC,OIL,0,Eastern,left_only
1851.0,6,Frank Jenkins,SB,2002.0,,Y,1.0,1.0,DFO,NG,Petroleum Liquids,IC,Operable,42.868611,-84.895555,RFC,MISO,MI,Ionia,City of Portland - (MI),MISO-E,OIL,0,0,MISO-E,MISO-E,Oil IC,OIL,0,Eastern,left_only
1852.0,1,St Louis,SB,1958.0,,Y,1.3,1.3,DFO,NG,Petroleum Liquids,IC,Operable,43.4019,-84.6014,RFC,MISO,MI,Gratiot,City of St Louis - (MI),MISO-E,OIL,0,0,MISO-E,MISO-E,Oil IC,OIL,0,Eastern,left_only
1852.0,2,St Louis,SB,1945.0,,Y,0.6,0.6,DFO,,Petroleum Liquids,IC,Operable,43.4019,-84.6014,RFC,MISO,MI,Gratiot,City of St Louis - (MI),MISO-E,OIL,0,0,MISO-E,MISO-E,Oil IC,OIL,0,Eastern,left_only
1852.0,3,St Louis,SB,1951.0,,Y,0.9,0.9,DFO,,Petroleum Liquids,IC,Operable,43.4019,-84.6014,RFC,MISO,MI,Gratiot,City of St Louis - (MI),MISO-E,OIL,0,0,MISO-E,MISO-E,Oil IC,OIL,0,Eastern,left_only
1852.0,7,St Louis,SB,1996.0,,Y,1.1,1.1,DFO,NG,Petroleum Liquids,IC,Operable,43.4019,-84.6014,RFC,MISO,MI,Gratiot,City of St Louis - (MI),MISO-E,OIL,0,0,MISO-E,MISO-E,Oil IC,OIL,0,Eastern,left_only
1852.0,9,St Louis,SB,2003.0,,Y,1.1,1.1,DFO,,Petroleum Liquids,IC,Operable,43.4019,-84.6014,RFC,MISO,MI,Gratiot,City of St Louis - (MI),MISO-E,OIL,0,0,MISO-E,MISO-E,Oil IC,OIL,0,Eastern,left_only
1853.0,1,Main Street (MI),SB,1961.0,,Y,0.9,1.0,DFO,,Petroleum Liquids,IC,Operable,43.732508,-83.453306,RFC,MISO,MI,Huron,Village of Sebewaing - (MI),MISO-E,OIL,0,0,MISO-E,MISO-E,Oil IC,OIL,0,Eastern,left_only
1853.0,2,Main Street (MI),SB,1947.0,,Y,0.8,0.9,DFO,,Petroleum Liquids,IC,Operable,43.732508,-83.453306,RFC,MISO,MI,Huron,Village of Sebewaing - (MI),MISO-E,OIL,0,0,MISO-E,MISO-E,Oil IC,OIL,0,Eastern,left_only
1853.0,3,Main Street (MI),SB,1966.0,,Y,1.1,1.1,DFO,,Petroleum Liquids,IC,Operable,43.732508,-83.453306,RFC,MISO,MI,Huron,Village of Sebewaing - (MI),MISO-E,OIL,0,0,MISO-E,MISO-E,Oil IC,OIL,0,Eastern,left_only
1853.0,4,Main Street (MI),SB,1966.0,,Y,1.2,1.3,DFO,,Petroleum Liquids,IC,Operable,43.732508,-83.453306,RFC,MISO,MI,Huron,Village of Sebewaing - (MI),MISO-E,OIL,0,0,MISO-E,MISO-E,Oil IC,OIL,0,Eastern,left_only
1853.0,5,Main Street (MI),SB,1979.0,,Y,1.0,1.1,DFO,,Petroleum Liquids,IC,Operable,43.732508,-83.453306,RFC,MISO,MI,Huron,Village of Sebewaing - (MI),MISO-E,OIL,0,0,MISO-E,MISO-E,Oil IC,OIL,0,Eastern,left_only
1853.0,6,Main Street (MI),SB,1967.0,,Y,0.6,0.6,DFO,,Petroleum Liquids,IC,Operable,43.732508,-83.453306,RFC,MISO,MI,Huron,Village of Sebewaing - (MI),MISO-E,OIL,0,0,MISO-E,MISO-E,Oil IC,OIL,0,Eastern,left_only
1866.0,4,Wyandotte,SB,1948.0,2026.0,Y,10.5,11.5,NG,,Natural Gas Steam Turbine,ST,Operable,42.2081,-83.1453,RFC,MISO,MI,Wayne,Wyandotte Municipal Serv Comm,MISO-E,GAS (SINGLE FUEL),1,0,MISO-E,MISO-E,NG ST,GAS,0,Eastern,left_only
1866.0,7,Wyandotte,SB,1986.0,2026.0,Y,32.0,35.0,NG,,Natural Gas Steam Turbine,ST,Operable,42.2081,-83.1453,RFC,MISO,MI,Wayne,Wyandotte Municipal Serv Comm,MISO-E,GAS (SINGLE FUEL),1,0,MISO-E,MISO-E,NG ST,GAS,0,Eastern,left_only
1877.0,11,George Johnson,SB,1993.0,,Y,1.0,1.0,DFO,,Petroleum Liquids,IC,Operable,43.8393,-85.426,RFC,MISO,MI,Osceola,Wolverine Power Supply Coop,MISO-E,OIL,0,0,MISO-E,MISO-E,Oil IC,OIL,0,Eastern,left_only
1893.0,D4,Clay Boswell,SB,1980.0,,Y,0.8,0.8,DFO,,Petroleum Liquids,IC,Operable,47.2611,-93.6528,MRO,MISO,MN,Itasca,"ALLETE, Inc.",MISO-W,OIL,0,0,MISO-W,MISO-W,Oil IC,OIL,0,Eastern,left_only
1898.0,2,Pillager,OS,1917.0,,X,0.8,0.8,WAT,,Conventional Hydroelectric,HY,Operable,46.316033,-94.484944,MRO,MISO,MN,Cass,"ALLETE, Inc.",MISO-W,HYDRO,0,0,MISO-W,MISO-W,Hydro,HYDRO,0,Eastern,left_only
1899.0,2,Scanlon,OS,1923.0,,X,0.4,0.4,WAT,,Conventional Hydroelectric,HY,Operable,46.709126,-92.421733,MRO,MISO,MN,Carlton,"ALLETE, Inc.",MISO-W,HYDRO,0,0,MISO-W,MISO-W,Hydro,HYDRO,0,Eastern,left_only
1913.0,1,Inver Hills,OP,1972.0,2026.0,X,47.0,62.0,NG,DFO,Natural Gas Fired Combustion Turbine,GT,Operable,44.781,-93.042,MRO,MISO,MN,Dakota,Northern States Power Co - Minnesota,MISO-W,GAS (DUAL FUEL),1,0,MISO-W,MISO-W,NG CT,GAS,1,Eastern,left_only
1913.0,2,Inver Hills,OP,1972.0,2026.0,X,47.0,62.0,NG,DFO,Natural Gas Fired Combustion Turbine,GT,Operable,44.781,-93.042,MRO,MISO,MN,Dakota,Northern States Power Co - Minnesota,MISO-W,GAS (DUAL FUEL),1,0,MISO-W,MISO-W,NG CT,GAS,1,Eastern,left_only
1913.0,3,Inver Hills,OP,1972.0,2026.0,X,47.0,62.0,NG,DFO,Natural Gas Fired Combustion Turbine,GT,Operable,44.781,-93.042,MRO,MISO,MN,Dakota,Northern States Power Co - Minnesota,MISO-W,GAS (DUAL FUEL),1,0,MISO-W,MISO-W,NG CT,GAS,1,Eastern,left_only
1913.0,4,Inver Hills,OP,1972.0,2026.0,X,47.0,62.0,NG,DFO,Natural Gas Fired Combustion Turbine,GT,Operable,44.781,-93.042,MRO,MISO,MN,Dakota,Northern States Power Co - Minnesota,MISO-W,GAS (DUAL FUEL),1,0,MISO-W,MISO-W,NG CT,GAS,1,Eastern,left_only
1913.0,5,Inver Hills,OP,1972.0,2026.0,X,47.0,61.0,NG,DFO,Natural Gas Fired Combustion Turbine,GT,Operable,44.781,-93.042,MRO,MISO,MN,Dakota,Northern States Power Co - Minnesota,MISO-W,GAS (DUAL FUEL),1,0,MISO-W,MISO-W,NG CT,GAS,1,Eastern,left_only
1913.0,6,Inver Hills,OP,1972.0,2026.0,X,47.0,62.0,NG,DFO,Natural Gas Fired Combustion Turbine,GT,Operable,44.781,-93.042,MRO,MISO,MN,Dakota,Northern States Power Co - Minnesota,MISO-W,GAS (DUAL FUEL),1,0,MISO-W,MISO-W,NG CT,GAS,1,Eastern,left_only
1913.0,7,Inver Hills,SB,1997.0,2026.0,Y,1.8,1.8,DFO,,Petroleum Liquids,GT,Operable,44.781,-93.042,MRO,MISO,MN,Dakota,Northern States Power Co - Minnesota,MISO-W,OIL,1,0,MISO-W,MISO-W,Oil CT,OIL,0,Eastern,left_only
1913.0,8,Inver Hills,SB,1997.0,2026.0,Y,1.8,1.8,DFO,,Petroleum Liquids,GT,Operable,44.781,-93.042,MRO,MISO,MN,Dakota,Northern States Power Co - Minnesota,MISO-W,OIL,1,0,MISO-W,MISO-W,Oil CT,OIL,0,Eastern,left_only
1915.0,1,Allen S King,OP,1958.0,2028.0,X,511.0,511.0,SUB,NG,Conventional Steam Coal,ST,Operable,45.03,-92.7786,MRO,MISO,MN,Washington,Northern States Power Co - Minnesota,MISO-W,COAL,1,0,MISO-W,MISO-W,Coal ST,COAL,0,Eastern,left_only
1926.0,1,Red Wing,OP,1949.0,2027.0,X,9.0,9.0,MSW,WDS,Municipal Solid Waste,ST,Operable,44.5692,-92.516912,MRO,MISO,MN,Goodhue,Northern States Power Co - Minnesota,MISO-W,BIOMASS,1,0,MISO-W,MISO-W,Biomass ST,BIOMASS,0,Eastern,left_only
1926.0,2,Red Wing,OP,1949.0,2027.0,X,9.0,9.0,MSW,WDS,Municipal Solid Waste,ST,Operable,44.5692,-92.516912,MRO,MISO,MN,Goodhue,Northern States Power Co - Minnesota,MISO-W,BIOMASS,1,0,MISO-W,MISO-W,Biomass ST,BIOMASS,0,Eastern,left_only
1934.0,1,Wilmarth,OP,1948.0,2027.0,X,9.0,9.0,MSW,NG,Municipal Solid Waste,ST,Operable,44.1967,-94.0009,MRO,MISO,MN,Blue Earth,Northern States Power Co - Minnesota,MISO-W,BIOMASS,1,0,MISO-W,MISO-W,Biomass ST,BIOMASS,0,Eastern,left_only
1934.0,2,Wilmarth,OP,1951.0,2027.0,X,9.0,9.0,MSW,NG,Municipal Solid Waste,ST,Operable,44.1967,-94.0009,MRO,MISO,MN,Blue Earth,Northern States Power Co - Minnesota,MISO-W,BIOMASS,1,0,MISO-W,MISO-W,Biomass ST,BIOMASS,0,Eastern,left_only
1958.0,IC1,Alexandria,SB,1948.0,,Y,1.0,1.0,DFO,,Petroleum Liquids,IC,Operable,45.889167,-95.379722,MRO,MISO,MN,Douglas,City of Alexandria - (MN),MISO-W,OIL,0,0,MISO-W,MISO-W,Oil IC,OIL,0,Eastern,left_only
1958.0,IC2,Alexandria,SB,1967.0,,Y,3.6,3.6,DFO,,Petroleum Liquids,IC,Operable,45.889167,-95.379722,MRO,MISO,MN,Douglas,City of Alexandria - (MN),MISO-W,OIL,0,0,MISO-W,MISO-W,Oil IC,OIL,0,Eastern,left_only
1958.0,IC3,Alexandria,SB,1967.0,,Y,3.6,3.6,DFO,,Petroleum Liquids,IC,Operable,45.889167,-95.379722,MRO,MISO,MN,Douglas,City of Alexandria - (MN),MISO-W,OIL,0,0,MISO-W,MISO-W,Oil IC,OIL,0,Eastern,left_only
1966.0,4,Blooming Prairie,SB,1974.0,,Y,1.3,1.3,DFO,,Petroleum Liquids,IC,Operable,43.866,-93.0504,MRO,MISO,MN,Steele,City of Blooming Prairie - (MN),MISO-W,OIL,0,0,MISO-W,MISO-W,Oil IC,OIL,0,Eastern,left_only
1966.0,5,Blooming Prairie,SB,2003.0,,Y,2.0,2.0,DFO,,Petroleum Liquids,IC,Operable,43.866,-93.0504,MRO,MISO,MN,Steele,City of Blooming Prairie - (MN),MISO-W,OIL,0,0,MISO-W,MISO-W,Oil IC,OIL,0,Eastern,left_only
1966.0,6,Blooming Prairie,SB,2009.0,,Y,1.9,1.9,DFO,,Petroleum Liquids,IC,Operable,43.866,-93.0504,MRO,MISO,MN,Steele,City of Blooming Prairie - (MN),MISO-W,OIL,0,0,MISO-W,MISO-W,Oil IC,OIL,0,Eastern,left_only
1966.0,7,Blooming Prairie,SB,2012.0,,Y,1.3,1.3,DFO,,Petroleum Liquids,IC,Operable,43.866,-93.0504,MRO,MISO,MN,Steele,City of Blooming Prairie - (MN),MISO-W,OIL,0,0,MISO-W,MISO-W,Oil IC,OIL,0,Eastern,left_only
1971.0,1,Elk River City of,SB,1948.0,,Y,0.5,0.5,DFO,,Petroleum Liquids,IC,Operable,45.3158,-93.5781,MRO,MISO,MN,Sherburne,City of Elk River,MISO-W,OIL,0,0,MISO-W,MISO-W,Oil IC,OIL,0,Eastern,left_only
1971.0,2,Elk River City of,SB,1948.0,,Y,0.5,0.5,DFO,,Petroleum Liquids,IC,Operable,45.3158,-93.5781,MRO,MISO,MN,Sherburne,City of Elk River,MISO-W,OIL,0,0,MISO-W,MISO-W,Oil IC,OIL,0,Eastern,left_only
1971.0,3,Elk River City of,SB,1962.0,,Y,3.0,3.0,DFO,NG,Petroleum Liquids,IC,Operable,45.3158,-93.5781,MRO,MISO,MN,Sherburne,City of Elk River,MISO-W,OIL,0,0,MISO-W,MISO-W,Oil IC,OIL,0,Eastern,left_only
1971.0,4,Elk River City of,SB,1972.0,,Y,5.0,5.0,DFO,NG,Petroleum Liquids,IC,Operable,45.3158,-93.5781,MRO,MISO,MN,Sherburne,City of Elk River,MISO-W,OIL,0,0,MISO-W,MISO-W,Oil IC,OIL,0,Eastern,left_only
1972.0,2A,Fairfax,SB,2001.0,,Y,1.9,1.9,DFO,,Petroleum Liquids,IC,Operable,44.525887,-94.718812,MRO,MISO,MN,Renville,City of Fairfax - (MN),MISO-W,OIL,0,0,MISO-W,MISO-W,Oil IC,OIL,0,Eastern,left_only
1983.0,5,Kenyon Municipal,SB,1997.0,,Y,1.8,1.8,DFO,,Petroleum Liquids,IC,Operable,44.2718,-92.9848,MRO,MISO,MN,Goodhue,Kenyon Municipal Utilities,MISO-W,OIL,0,0,MISO-W,MISO-W,Oil IC,OIL,0,Eastern,left_only
1983.0,6,Kenyon Municipal,SB,1997.0,,Y,1.8,1.8,DFO,,Petroleum Liquids,IC,Operable,44.2718,-92.9848,MRO,MISO,MN,Goodhue,Kenyon Municipal Utilities,MISO-W,OIL,0,0,MISO-W,MISO-W,Oil IC,OIL,0,Eastern,left_only
1983.0,7,Kenyon Municipal,SB,1997.0,,Y,1.8,1.8,DFO,,Petroleum Liquids,IC,Operable,44.2718,-92.9848,MRO,MISO,MN,Goodhue,Kenyon Municipal Utilities,MISO-W,OIL,0,0,MISO-W,MISO-W,Oil IC,OIL,0,Eastern,left_only
1989.0,5,Litchfield,SB,1963.0,,Y,2.1,2.1,DFO,NG,Petroleum Liquids,IC,Operable,45.128164,-94.53515,MRO,MISO,MN,Meeker,Litchfield Public Utilities,MISO-W,OIL,0,0,MISO-W,MISO-W,Oil IC,OIL,0,Eastern,left_only
1989.0,6,Litchfield,SB,1963.0,,Y,2.1,2.1,DFO,NG,Petroleum Liquids,IC,Operable,45.128164,-94.53515,MRO,MISO,MN,Meeker,Litchfield Public Utilities,MISO-W,OIL,0,0,MISO-W,MISO-W,Oil IC,OIL,0,Eastern,left_only
1989.0,QS 1,Litchfield,SB,2010.0,,Y,2.3,2.3,DFO,,Petroleum Liquids,IC,Operable,45.128164,-94.53515,MRO,MISO,MN,Meeker,Litchfield Public Utilities,MISO-W,OIL,0,0,MISO-W,MISO-W,Oil IC,OIL,0,Eastern,left_only
1989.0,QS 2,Litchfield,SB,2010.0,,Y,2.3,2.3,DFO,,Petroleum Liquids,IC,Operable,45.128164,-94.53515,MRO,MISO,MN,Meeker,Litchfield Public Utilities,MISO-W,OIL,0,0,MISO-W,MISO-W,Oil IC,OIL,0,Eastern,left_only
1989.0,QS 3,Litchfield,SB,2010.0,,Y,2.3,2.3,DFO,,Petroleum Liquids,IC,Operable,45.128164,-94.53515,MRO,MISO,MN,Meeker,Litchfield Public Utilities,MISO-W,OIL,0,0,MISO-W,MISO-W,Oil IC,OIL,0,Eastern,left_only
